{"id": "Q101638", "name": "Mary Wollstonecraft", "countryOfCitizenship": {"0": "Kingdom of Great Britain"}, "occupation": {"0": "writer", "1": "translator", "2": "philosopher", "3": "historian", "4": "novelist", "5": "essayist", "6": "governess", "7": "businessperson", "8": "travel writer", "9": "children's writer"}, "dateOfBirth": {"0": "+1759-04-27T00:00:00Z"}, "dateOfDeath": {"0": "+1797-09-10T00:00:00Z"}, "influencedBy": {"0": "Joseph Johnson"}, "fieldOfWork": {"0": "essay", "1": "gender studies", "2": "women's rights", "3": "political activity", "4": "creative and professional writing"}, "notableWork": {"0": "A Vindication of the Rights of Woman", "1": "Letters Written During a Short Residence in Sweden, Norway, and Denmark"}, "residence": {"0": {"name": "Barking", "coordinates": {"latitude": 51.54, "longitude": 0.08, "altitude": null, "precision": 0.00027777777777778, "globe": "http://www.wikidata.org/entity/Q2"}}, "1": {"name": "Epping Forest", "coordinates": {"latitude": 51.66, "longitude": 0.05, "altitude": null, "precision": 0.01, "globe": "http://www.wikidata.org/entity/Q2"}}, "2": {"name": "Wales", "coordinates": {"latitude": 52.35, "longitude": -3.6333333333333, "altitude": null, "precision": 0.016666666666667, "globe": "http://www.wikidata.org/entity/Q2"}}, "3": {"name": "Newington Green", "coordinates": {"latitude": 51.5514, "longitude": -0.0851, "altitude": null, "precision": 0.0001, "globe": "http://www.wikidata.org/entity/Q2"}}, "4": {"name": "Ireland", "coordinates": {"latitude": 53.351, "longitude": -7.921, "altitude": null, "precision": 0.001, "globe": "http://www.wikidata.org/entity/Q2"}}, "5": {"name": "Southwark", "coordinates": {"latitude": 51.4988, "longitude": -0.0901, "altitude": null, "precision": 0.00027777777777778, "globe": "http://www.wikidata.org/entity/Q2"}}, "6": {"name": "Bloomsbury", "coordinates": {"latitude": 51.5201, "longitude": -0.12879972222222222, "altitude": null, "precision": 2.7777777777777776e-07, "globe": "http://www.wikidata.org/entity/Q2"}}, "7": {"name": "Beverley", "coordinates": {"latitude": 53.845, "longitude": -0.427, "altitude": null, "precision": 0.00027777777777778, "globe": "http://www.wikidata.org/entity/Q2"}}, "8": {"name": "Paris", "coordinates": {"latitude": 48.85666666666667, "longitude": 2.352222222222222, "altitude": null, "precision": 0.0002777777777777778, "globe": "http://www.wikidata.org/entity/Q2"}}}, "image": {"0": "Mary Wollstonecraft by John Opie (c. 1797).jpg"}, "edges": {"influenced": {"0": {"id": "Q41513", "name": "William Blake"}, "1": {"id": "Q79969", "name": "Emma Goldman"}}, "influencedBy": {"0": {"id": "Q126462", "name": "Thomas Paine"}, "1": {"id": "Q561101", "name": "Richard Price"}}}}