{"id": "Q107293077", "name": "Sue Shon", "occupation": {"0": "university teacher", "1": "academic", "2": "cultural studies scholar"}, "fieldOfWork": {"0": "cultural studies", "1": "critical sociology", "2": "art history", "3": "art theory", "4": "English literature"}, "employer": {"0": {"name": "Emily Carr University of Art and Design", "coordinates": {"latitude": 49.267735, "longitude": -123.094129, "altitude": null, "precision": 2.7777777777778e-08, "globe": "http://www.wikidata.org/entity/Q2"}}, "1": {"name": "University of Southern Maine", "coordinates": {"latitude": 43.6625, "longitude": -70.276111111111, "altitude": null, "precision": 0.00027777777777778, "globe": "http://www.wikidata.org/entity/Q2"}}, "2": {"name": "New Mexico State University", "coordinates": {"latitude": 32.283, "longitude": -106.748, "altitude": null, "precision": 0.001, "globe": "http://www.wikidata.org/entity/Q2"}}}, "educatedAt": {"0": {"name": "University of Washington", "coordinates": {"latitude": 47.65416666666667, "longitude": -122.30805555555555, "altitude": null, "precision": 0.0002777777777777778, "globe": "http://www.wikidata.org/entity/Q2"}}, "1": {"name": "School of the Art Institute of Chicago", "coordinates": {"latitude": 41.879444444444, "longitude": -87.623888888889, "altitude": null, "precision": null, "globe": "http://www.wikidata.org/entity/Q2"}}, "2": {"name": "University of Pennsylvania", "coordinates": {"latitude": 39.95388888888889, "longitude": -75.19305555555556, "altitude": null, "precision": 0.000277778, "globe": "http://www.wikidata.org/entity/Q2"}}}}