{"id": "Q109093", "name": "Heinrich Maier", "countryOfCitizenship": {"0": "Germany"}, "employer": {"0": {"name": "University of T\u00fcbingen", "coordinates": {"latitude": 48.525, "longitude": 9.059, "altitude": null, "precision": null, "globe": "http://www.wikidata.org/entity/Q2"}}, "1": {"name": "University of G\u00f6ttingen", "coordinates": {"latitude": 51.533979833333, "longitude": 9.93792, "altitude": null, "precision": 2.7777777777778e-08, "globe": "http://www.wikidata.org/entity/Q2"}}, "2": {"name": "Heidelberg University", "coordinates": {"latitude": 49.410277777778, "longitude": 8.7063888888889, "altitude": null, "precision": 0.000277778, "globe": "http://www.wikidata.org/entity/Q2"}}, "3": {"name": "University of Zurich", "coordinates": {"latitude": 47.374722222222, "longitude": 8.5483333333333, "altitude": null, "precision": null, "globe": "http://www.wikidata.org/entity/Q2"}}, "4": {"name": "Humboldt University of Berlin", "coordinates": {"latitude": 52.518055555556, "longitude": 13.393333333333, "altitude": null, "precision": null, "globe": "http://www.wikidata.org/entity/Q2"}}}, "dateOfBirth": {"0": "+1867-02-05T00:00:00Z"}, "dateOfDeath": {"0": "+1933-11-28T00:00:00Z"}, "occupation": {"0": "philosopher", "1": "psychologist", "2": "university teacher"}, "student": {"0": "Eleonore D\u00f6rner"}, "educatedAt": {"0": {"name": "University of T\u00fcbingen", "coordinates": {"latitude": 48.525, "longitude": 9.059, "altitude": null, "precision": null, "globe": "http://www.wikidata.org/entity/Q2"}}}}