{"id": "Q113951", "name": "Erik von Kuehnelt-Leddihn", "countryOfCitizenship": {"0": "Austria"}, "dateOfBirth": {"0": "+1909-07-31T00:00:00Z"}, "dateOfDeath": {"0": "+1999-05-26T00:00:00Z"}, "educatedAt": {"0": {"name": "University of Vienna", "coordinates": {"latitude": 48.213055555556, "longitude": 16.359722222222, "altitude": null, "precision": null, "globe": "http://www.wikidata.org/entity/Q2"}}, "1": {"name": "E\u00f6tv\u00f6s Lor\u00e1nd University", "coordinates": {"latitude": 47.4906, "longitude": 19.0585, "altitude": null, "precision": 0.0001, "globe": "http://www.wikidata.org/entity/Q2"}}}, "occupation": {"0": "philosopher", "1": "university teacher", "2": "journalist", "3": "literary critic", "4": "politician"}, "employer": {"0": {"name": "Georgetown University", "coordinates": {"latitude": 38.907222222222, "longitude": -77.072777777778, "altitude": null, "precision": 0.00027777777777778, "globe": "http://www.wikidata.org/entity/Q2"}}, "1": {"name": "Fordham University", "coordinates": {"latitude": 40.86282744039587, "longitude": -73.88575234654104, "altitude": null, "precision": 1e-08, "globe": "http://www.wikidata.org/entity/Q2"}}, "2": {"name": "Saint Peter's University", "coordinates": {"latitude": 40.727027, "longitude": -74.071045, "altitude": null, "precision": 0.00027777777777778, "globe": "http://www.wikidata.org/entity/Q2"}}}, "edges": {"influenced": {"0": {"id": "Q76688", "name": "Hans-Hermann Hoppe"}, "1": {"id": "Q788572", "name": "Max Eastman"}, "2": {"id": "Q21062238", "name": "Curtis Yarvin"}}}}