{"id": "Q125879", "name": "William Alston", "countryOfCitizenship": {"0": "United States of America"}, "dateOfBirth": {"0": "+1921-11-29T00:00:00Z"}, "dateOfDeath": {"0": "+2007-09-13T00:00:00Z"}, "occupation": {"0": "philosopher", "1": "university teacher"}, "employer": {"0": {"name": "Rutgers University", "coordinates": {"latitude": 40.501666666667, "longitude": -74.448055555556, "altitude": null, "precision": 0.00027777777777778, "globe": "http://www.wikidata.org/entity/Q2"}}, "1": {"name": "University of Illinois at Urbana\u2013Champaign", "coordinates": {"latitude": 40.110538888889, "longitude": -88.228411111111, "altitude": null, "precision": 2.7777777777778e-06, "globe": "http://www.wikidata.org/entity/Q2"}}, "2": {"name": "University of Michigan", "coordinates": {"latitude": 42.276944444444446, "longitude": -83.73805555555556, "altitude": null, "precision": 0.0002777777777777778, "globe": "http://www.wikidata.org/entity/Q2"}}, "3": {"name": "Syracuse University", "coordinates": {"latitude": 43.037638888889, "longitude": -76.134, "altitude": null, "precision": 2.7777777777778e-05, "globe": "http://www.wikidata.org/entity/Q2"}}}, "educatedAt": {"0": {"name": "University of Chicago", "coordinates": {"latitude": 41.789722222222, "longitude": -87.599722222222, "altitude": null, "precision": 0.00027777777777778, "globe": "http://www.wikidata.org/entity/Q2"}}}, "fieldOfWork": {"0": "philosophical theology", "1": "epistemology", "2": "philosophy of language", "3": "philosophy of psychology", "4": "early modern philosophy"}}