{"id": "Q130631", "name": "Jacques Derrida", "occupation": {"0": "philosopher", "1": "literary critic", "2": "university teacher", "3": "writer"}, "dateOfBirth": {"0": "+1930-07-15T00:00:00Z"}, "educatedAt": {"0": {"name": "\u00c9cole Normale Sup\u00e9rieure", "coordinates": {"latitude": 48.841944444444, "longitude": 2.3444444444444, "altitude": null, "precision": 0.00027777777777778, "globe": "http://www.wikidata.org/entity/Q2"}}, "1": {"name": "Harvard University", "coordinates": {"latitude": 42.374443888889, "longitude": -71.116943888889, "altitude": null, "precision": 2.77778e-06, "globe": "http://www.wikidata.org/entity/Q2"}}, "2": {"name": "University of Paris 1 Pantheon-Sorbonne", "coordinates": {"latitude": 48.848333, "longitude": 2.343056, "altitude": null, "precision": 1e-06, "globe": "http://www.wikidata.org/entity/Q2"}}, "3": {"name": "Faculty of Arts of Paris", "coordinates": ""}, "4": {"name": "Lyc\u00e9e Louis-le-Grand", "coordinates": {"latitude": 48.848056, "longitude": 2.344528, "altitude": null, "precision": 2.7777777777778e-05, "globe": "http://www.wikidata.org/entity/Q2"}}}, "image": {"0": "Derrida-by-Pablo-Secca.jpg", "1": "Jaques Derrida (cropped).jpg"}, "countryOfCitizenship": {"0": "France"}, "employer": {"0": {"name": "School for Advanced Studies in the Social Sciences", "coordinates": {"latitude": 48.83607, "longitude": 2.37205, "altitude": null, "precision": 1e-06, "globe": "http://www.wikidata.org/entity/Q2"}}, "1": {"name": "European Graduate School", "coordinates": {"latitude": 46.11457, "longitude": 7.92939, "altitude": null, "precision": 0.00027777777777778, "globe": "http://www.wikidata.org/entity/Q2"}}, "2": {"name": "University of California, Irvine", "coordinates": {"latitude": 33.64535, "longitude": -117.84264166667, "altitude": null, "precision": 0.00027777777777778, "globe": "http://www.wikidata.org/entity/Q2"}}}, "influencedBy": {"0": "James Joyce", "1": "Antonin Artaud"}, "movement": {"0": "post-structuralism", "1": "deconstruction"}, "doctralStudent": {"0": "Carlos Alberto Lobo", "1": "Philippe Beck"}, "dateOfDeath": {"0": "+2004-10-08T00:00:00Z", "1": "+2004-10-09T00:00:00Z"}, "fieldOfWork": {"0": "philosophy of language"}, "timePeriod": {"0": "contemporary philosophy"}}