{"id": "Q13077994", "name": "Luc Brisson", "countryOfCitizenship": {"0": "Canada"}, "occupation": {"0": "philosopher", "1": "philosophy historian", "2": "research fellow", "3": "translator"}, "dateOfBirth": {"0": "+1946-03-10T00:00:00Z"}, "educatedAt": {"0": {"name": "Paris Nanterre University", "coordinates": {"latitude": 48.90391243962806, "longitude": 2.2134523725173545, "altitude": null, "precision": 1e-08, "globe": "http://www.wikidata.org/entity/Q2"}}, "1": {"name": "University of Montreal", "coordinates": {"latitude": 45.50414, "longitude": -73.61433, "altitude": null, "precision": 0.0001, "globe": "http://www.wikidata.org/entity/Q2"}}, "2": {"name": "\u00c9cole pratique des hautes \u00e9tudes", "coordinates": {"latitude": 48.8311, "longitude": 2.34, "altitude": null, "precision": 1e-07, "globe": "http://www.wikidata.org/entity/Q2"}}, "3": {"name": "Sorbonne Nouvelle-Paris 3", "coordinates": {"latitude": 48.84488888888889, "longitude": 2.396988888888889, "altitude": null, "precision": 1e-08, "globe": "http://www.wikidata.org/entity/Q2"}}}, "employer": {"0": {"name": "National Center for Scientific Research", "coordinates": {"latitude": 48.8477, "longitude": 2.264, "altitude": null, "precision": 2.77777777778e-06, "globe": "http://www.wikidata.org/entity/Q2"}}}, "doctralStudent": {"0": "Sandra Boehringer", "1": "Bernard Piettre", "2": "Fabienne Jourdan"}, "edges": {"student": {"0": {"id": "Q60628810", "name": "Marc-Antoine Gavray"}, "1": {"id": "Q113811945", "name": "Beno\u00eet Casteln\u00e9rac"}, "2": {"id": "Q76832180", "name": "Richard Dufour"}, "3": {"id": "Q113774485", "name": "Arnaud Mac\u00e9"}}}}