{"id": "Q13522540", "name": "R. Jay Wallace", "educatedAt": {"0": {"name": "University of Oxford", "coordinates": {"latitude": 51.755, "longitude": -1.255, "altitude": null, "precision": 0.0002777777777777778, "globe": "http://www.wikidata.org/entity/Q2"}}, "1": {"name": "Princeton University", "coordinates": {"latitude": 40.345277777778, "longitude": -74.656111111111, "altitude": null, "precision": 0.00027777777777778, "globe": "http://www.wikidata.org/entity/Q2"}}, "2": {"name": "Williams College", "coordinates": {"latitude": 42.7125, "longitude": -73.205, "altitude": null, "precision": 0.0002777777777777778, "globe": "http://www.wikidata.org/entity/Q2"}}}, "employer": {"0": {"name": "Wesleyan University", "coordinates": {"latitude": 41.55562, "longitude": -72.655844, "altitude": null, "precision": 0.00027777777777778, "globe": "http://www.wikidata.org/entity/Q2"}}, "1": {"name": "University of California, Berkeley", "coordinates": {"latitude": 37.87, "longitude": -122.259, "altitude": null, "precision": 0.00027777777777778, "globe": "http://www.wikidata.org/entity/Q2"}}}, "occupation": {"0": "philosopher", "1": "university teacher"}, "dateOfBirth": {"0": "+1957-00-00T00:00:00Z"}, "student": {"0": "Mark Young"}, "doctralStudent": {"0": "Jennifer Elisabeth Johnson", "1": "Andrew Dean Engen"}, "image": {"0": "Jay-wallace-2019.jpg"}, "fieldOfWork": {"0": "philosophy"}}