{"id": "Q1384603", "name": "Jacques Bouveresse", "educatedAt": {"0": {"name": "\u00c9cole Normale Sup\u00e9rieure", "coordinates": {"latitude": 48.841944444444, "longitude": 2.3444444444444, "altitude": null, "precision": 0.00027777777777778, "globe": "http://www.wikidata.org/entity/Q2"}}, "1": {"name": "Lyc\u00e9e Lakanal", "coordinates": {"latitude": 48.77638889, "longitude": 2.30416667, "altitude": null, "precision": 0.00027777777777778, "globe": "http://www.wikidata.org/entity/Q2"}}, "2": {"name": "University of Paris 1 Pantheon-Sorbonne", "coordinates": {"latitude": 48.848333, "longitude": 2.343056, "altitude": null, "precision": 1e-06, "globe": "http://www.wikidata.org/entity/Q2"}}}, "dateOfBirth": {"0": "+1940-08-20T00:00:00Z"}, "image": {"0": "Bouveresse 2009.png"}, "countryOfCitizenship": {"0": "France"}, "movement": {"0": "atheism"}, "occupation": {"0": "philosopher", "1": "professor", "2": "university teacher"}, "employer": {"0": {"name": "Coll\u00e8ge de France", "coordinates": {"latitude": 48.84917, "longitude": 2.34556, "altitude": null, "precision": 2.7777777777778e-05, "globe": "http://www.wikidata.org/entity/Q2"}}, "1": {"name": "Faculty of Arts of Paris", "coordinates": ""}, "2": {"name": "University of Geneva", "coordinates": {"latitude": 46.19899, "longitude": 6.14446, "altitude": null, "precision": null, "globe": "http://www.wikidata.org/entity/Q2"}}, "3": {"name": "University of Paris 1 Pantheon-Sorbonne", "coordinates": {"latitude": 48.848333, "longitude": 2.343056, "altitude": null, "precision": 1e-06, "globe": "http://www.wikidata.org/entity/Q2"}}}, "doctralStudent": {"0": "Fran\u00e7ois Rivenc", "1": "Michel Fichant", "2": "Marc Imbeault", "3": "Jean-Baptiste Rauzy"}, "dateOfDeath": {"0": "+2021-05-09T00:00:00Z"}, "edges": {"student": {"0": {"id": "Q120002825", "name": "Fr\u00e9d\u00e9ric Cossutta"}, "1": {"id": "Q3471924", "name": "Sandra Laugier"}, "2": {"id": "Q542992", "name": "Pascal Engel"}, "3": {"id": "Q2978512", "name": "Claudine Tiercelin"}, "4": {"id": "Q2836156", "name": "Ali Benmakhlouf"}, "5": {"id": "Q66459522", "name": "St\u00e9phane Ferret"}}}}