{"id": "Q1447724", "name": "John Niemeyer Findlay", "countryOfCitizenship": {"0": "South Africa"}, "educatedAt": {"0": {"name": "University of Pretoria", "coordinates": {"latitude": -25.7536, "longitude": 28.2297, "altitude": null, "precision": 0.01, "globe": "http://www.wikidata.org/entity/Q2"}}, "1": {"name": "University of Graz", "coordinates": {"latitude": 47.07761, "longitude": 15.44956, "altitude": null, "precision": 1e-05, "globe": "http://www.wikidata.org/entity/Q2"}}}, "dateOfDeath": {"0": "+1987-09-27T00:00:00Z"}, "occupation": {"0": "philosopher", "1": "university teacher"}, "employer": {"0": {"name": "University of Texas at Austin", "coordinates": {"latitude": 30.28614, "longitude": -97.73942, "altitude": null, "precision": null, "globe": "http://www.wikidata.org/entity/Q2"}}, "1": {"name": "University of Otago", "coordinates": {"latitude": -45.865555555556, "longitude": 170.51388888889, "altitude": null, "precision": 0.00027777777777778, "globe": "http://www.wikidata.org/entity/Q2"}}, "2": {"name": "Yale University", "coordinates": {"latitude": 41.311111111111, "longitude": -72.926666666667, "altitude": null, "precision": null, "globe": "http://www.wikidata.org/entity/Q2"}}, "3": {"name": "King's College London", "coordinates": {"latitude": 51.511944444444, "longitude": -0.11611111111111, "altitude": null, "precision": 0.00027777777777778, "globe": "http://www.wikidata.org/entity/Q2"}}, "4": {"name": "Boston University", "coordinates": {"latitude": 42.34888888888889, "longitude": -71.10027777777778, "altitude": null, "precision": 0.0002777777777777778, "globe": "http://www.wikidata.org/entity/Q2"}}, "5": {"name": "Newcastle University", "coordinates": {"latitude": 54.978, "longitude": -1.615, "altitude": null, "precision": null, "globe": "http://www.wikidata.org/entity/Q2"}}, "6": {"name": "University of Pretoria", "coordinates": {"latitude": -25.7536, "longitude": 28.2297, "altitude": null, "precision": 0.01, "globe": "http://www.wikidata.org/entity/Q2"}}}, "dateOfBirth": {"0": "+1903-11-25T00:00:00Z"}}