{"id": "Q153020", "name": "Jos\u00e9 Ortega y Gasset", "countryOfCitizenship": {"0": "Spain"}, "dateOfDeath": {"0": "+1955-10-18T00:00:00Z"}, "dateOfBirth": {"0": "+1883-05-09T00:00:00Z"}, "image": {"0": "Jose Ortega y Gasset.jpg"}, "occupation": {"0": "philosopher", "1": "pedagogue", "2": "writer", "3": "university teacher", "4": "sociologist", "5": "mathematician", "6": "literary critic", "7": "opinion journalist", "8": "politician", "9": "poet", "10": "translator", "11": "essayist"}, "employer": {"0": {"name": "Ciudad Ju\u00e1rez", "coordinates": {"latitude": 31.745, "longitude": -106.485, "altitude": null, "precision": 0.0002777777777777778, "globe": "http://www.wikidata.org/entity/Q2"}}}, "residence": {"0": {"name": "Madrid", "coordinates": {"latitude": 40.41694444444445, "longitude": -3.703333333333333, "altitude": null, "precision": 0.0002777777777777778, "globe": "http://www.wikidata.org/entity/Q2"}}}, "educatedAt": {"0": {"name": "Universidad Central", "coordinates": {"latitude": 40.424542, "longitude": -3.707569, "altitude": null, "precision": 1e-06, "globe": "http://www.wikidata.org/entity/Q2"}}, "1": {"name": "University of Deusto", "coordinates": {"latitude": 43.270833333333, "longitude": -2.9375, "altitude": null, "precision": 0.00027777777777778, "globe": "http://www.wikidata.org/entity/Q2"}}, "2": {"name": "St. Stanislaus Kostka College, M\u00e1laga", "coordinates": {"latitude": 36.72136667, "longitude": -4.36199722, "altitude": null, "precision": 1e-06, "globe": "http://www.wikidata.org/entity/Q2"}}}, "fieldOfWork": {"0": "philosophy"}, "movement": {"0": "Noucentisme"}, "studentOf": {"0": "Julio Cejador y Frauca"}}