{"id": "Q153034", "name": "Emmanuel Levinas", "occupation": {"0": "philosopher", "1": "university teacher", "2": "ethicist", "3": "writer"}, "countryOfCitizenship": {"0": "France"}, "dateOfBirth": {"0": "+1906-01-12T00:00:00Z", "1": "+1905-12-30T00:00:00Z"}, "dateOfDeath": {"0": "+1995-12-25T00:00:00Z"}, "employer": {"0": {"name": "University of Poitiers", "coordinates": {"latitude": 46.586111111111, "longitude": 0.34388888888889, "altitude": null, "precision": 0.00027777777777778, "globe": "http://www.wikidata.org/entity/Q2"}}, "1": {"name": "University of Paris", "coordinates": {"latitude": 48.8486, "longitude": 2.34333, "altitude": null, "precision": 0.013651149849302, "globe": "http://www.wikidata.org/entity/Q2"}}, "2": {"name": "University of Fribourg", "coordinates": {"latitude": 46.80625, "longitude": 7.1517388888889, "altitude": null, "precision": 0.00027777777777778, "globe": "http://www.wikidata.org/entity/Q2"}}}, "image": {"0": "Emmanuel Levinas.jpg"}, "educatedAt": {"0": {"name": "University of Freiburg", "coordinates": {"latitude": 47.994166666667, "longitude": 7.8469444444444, "altitude": null, "precision": null, "globe": "http://www.wikidata.org/entity/Q2"}}, "1": {"name": "University of Strasbourg", "coordinates": {"latitude": 48.580277777778, "longitude": 7.7644444444444, "altitude": null, "precision": null, "globe": "http://www.wikidata.org/entity/Q2"}}}, "fieldOfWork": {"0": "philosophy", "1": "phenomenology", "2": "Judaism", "3": "ethics"}, "notableWork": {"0": "Totality and Infinity"}}