{"id": "Q156268", "name": "Pierre Bourdieu", "occupation": {"0": "philosopher", "1": "sociologist", "2": "anthropologist", "3": "writer", "4": "photographer", "5": "translator"}, "countryOfCitizenship": {"0": "France"}, "dateOfDeath": {"0": "+2002-01-23T00:00:00Z"}, "dateOfBirth": {"0": "+1930-08-01T00:00:00Z"}, "educatedAt": {"0": {"name": "\u00c9cole Normale Sup\u00e9rieure", "coordinates": {"latitude": 48.841944444444, "longitude": 2.3444444444444, "altitude": null, "precision": 0.00027777777777778, "globe": "http://www.wikidata.org/entity/Q2"}}, "1": {"name": "Lyc\u00e9e Louis-Barthou", "coordinates": {"latitude": 43.2962, "longitude": -0.364464, "altitude": null, "precision": 0.012342577215075, "globe": "http://www.wikidata.org/entity/Q2"}}, "2": {"name": "Lyc\u00e9e Louis-le-Grand", "coordinates": {"latitude": 48.848056, "longitude": 2.344528, "altitude": null, "precision": 2.7777777777778e-05, "globe": "http://www.wikidata.org/entity/Q2"}}, "3": {"name": "Lyc\u00e9e Lakanal", "coordinates": {"latitude": 48.77638889, "longitude": 2.30416667, "altitude": null, "precision": 0.00027777777777778, "globe": "http://www.wikidata.org/entity/Q2"}}}, "employer": {"0": {"name": "School for Advanced Studies in the Social Sciences", "coordinates": {"latitude": 48.83607, "longitude": 2.37205, "altitude": null, "precision": 1e-06, "globe": "http://www.wikidata.org/entity/Q2"}}, "1": {"name": "Coll\u00e8ge de France", "coordinates": {"latitude": 48.84917, "longitude": 2.34556, "altitude": null, "precision": 2.7777777777778e-05, "globe": "http://www.wikidata.org/entity/Q2"}}, "2": {"name": "Faculty of Arts of Paris", "coordinates": ""}, "3": {"name": "School for Advanced Studies in the Social Sciences", "coordinates": {"latitude": 48.83607, "longitude": 2.37205, "altitude": null, "precision": 1e-06, "globe": "http://www.wikidata.org/entity/Q2"}}, "4": {"name": "University of Paris", "coordinates": {"latitude": 48.8486, "longitude": 2.34333, "altitude": null, "precision": 0.013651149849302, "globe": "http://www.wikidata.org/entity/Q2"}}, "5": {"name": "Lille University of Science and Technology", "coordinates": {"latitude": 50.609166666667, "longitude": 3.1416666666667, "altitude": null, "precision": 0.00027777777777778, "globe": "http://www.wikidata.org/entity/Q2"}}}, "notableWork": {"0": "Distinction", "1": "Les H\u00e9ritiers", "2": "Reproduction in Education, Society, and Culture"}, "doctralStudent": {"0": "Pascale Casanova", "1": "Jean-Louis Fabiani", "2": "Marcel Fournier", "3": "Anne-Mari\u00e9 Waser", "4": "Sandrine Garcia", "5": "Gis\u00e8le Sapiro"}, "student": {"0": "B\u00e9atrice Nod\u00e9-Langlois"}, "image": {"0": "Pierre Bourdieu (1).jpg"}, "fieldOfWork": {"0": "sociology"}, "influencedBy": {"0": "Max Weber", "1": "Peter L. Berger"}, "edges": {"studentOf": {"0": {"id": "Q433741", "name": "Georges Canguilhem"}}, "influencedBy": {"0": {"id": "Q9061", "name": "Karl Marx"}, "1": {"id": "Q9047", "name": "Gottfried Wilhelm Leibniz"}, "2": {"id": "Q44272", "name": "Michel Foucault"}, "3": {"id": "Q15948", "name": "\u00c9mile Durkheim"}, "4": {"id": "Q128126", "name": "Claude L\u00e9vi-Strauss"}, "5": {"id": "Q212639", "name": "Maurice Merleau-Ponty"}, "6": {"id": "Q9391", "name": "Ludwig Wittgenstein"}, "7": {"id": "Q433741", "name": "Georges Canguilhem"}, "8": {"id": "Q9438", "name": "Thomas Aquinas"}, "9": {"id": "Q868", "name": "Aristotle"}, "10": {"id": "Q3165157", "name": "Jean-Claude Passeron"}, "11": {"id": "Q9364", "name": "Jean-Paul Sartre"}, "12": {"id": "Q60412", "name": "Thomas Luckmann"}}}}