{"id": "Q15730265", "name": "Alain Deneault", "dateOfBirth": {"0": "+1970-09-26T00:00:00Z"}, "employer": {"0": {"name": "University of Montreal", "coordinates": {"latitude": 45.50414, "longitude": -73.61433, "altitude": null, "precision": 0.0001, "globe": "http://www.wikidata.org/entity/Q2"}}, "1": {"name": "Universit\u00e9 du Qu\u00e9bec \u00e0 Montr\u00e9al", "coordinates": {"latitude": 45.513888888889, "longitude": -73.560277777778, "altitude": null, "precision": 0.00027777777777778, "globe": "http://www.wikidata.org/entity/Q2"}}, "2": {"name": "St. Thomas University", "coordinates": {"latitude": 45.943661111111, "longitude": -66.646777777778, "altitude": null, "precision": null, "globe": "http://www.wikidata.org/entity/Q2"}}, "3": {"name": "Universit\u00e9 de Moncton", "coordinates": {"latitude": 46.105, "longitude": -64.7819, "altitude": null, "precision": 0.001, "globe": "http://www.wikidata.org/entity/Q2"}}}, "educatedAt": {"0": {"name": "Paris 8 University", "coordinates": {"latitude": 48.944722222222, "longitude": 2.3633333333333, "altitude": null, "precision": 0.00027777777777778, "globe": "http://www.wikidata.org/entity/Q2"}}, "1": {"name": "Marc Bloch Center", "coordinates": {"latitude": 52.51087, "longitude": 13.38935, "altitude": null, "precision": 1e-05, "globe": "http://www.wikidata.org/entity/Q2"}}}, "image": {"0": "Alain Deneault.jpg"}, "countryOfCitizenship": {"0": "Canada"}, "occupation": {"0": "philosopher", "1": "university teacher", "2": "non-fiction writer", "3": "essayist"}, "edges": {"studentOf": {"0": {"id": "Q467470", "name": "Jacques Ranci\u00e8re"}}}}