{"id": "Q164797", "name": "Paulo Freire", "dateOfBirth": {"0": "+1921-09-19T00:00:00Z", "1": "+1921-10-19T00:00:00Z"}, "dateOfDeath": {"0": "+1997-05-02T00:00:00Z"}, "countryOfCitizenship": {"0": "Brazil"}, "occupation": {"0": "teacher", "1": "writer", "2": "lawyer", "3": "economist", "4": "philosopher", "5": "pedagogue", "6": "poet"}, "employer": {"0": {"name": "University of S\u00e3o Paulo", "coordinates": {"latitude": -23.5613991, "longitude": -46.7307891, "altitude": null, "precision": 1e-07, "globe": "http://www.wikidata.org/entity/Q2"}}, "1": {"name": "University of Campinas", "coordinates": {"latitude": -22.817222222222, "longitude": -47.069444444444, "altitude": null, "precision": 0.00027777777777778, "globe": "http://www.wikidata.org/entity/Q2"}}, "2": {"name": "University of Geneva", "coordinates": {"latitude": 46.19899, "longitude": 6.14446, "altitude": null, "precision": null, "globe": "http://www.wikidata.org/entity/Q2"}}, "3": {"name": "University of Oldenburg", "coordinates": {"latitude": 53.147778, "longitude": 8.182222, "altitude": null, "precision": 1e-05, "globe": "http://www.wikidata.org/entity/Q2"}}}, "educatedAt": {"0": {"name": "Faculdade de Direito do Recife", "coordinates": {"latitude": -8.0595839, "longitude": -34.882675, "altitude": null, "precision": 1e-07, "globe": "http://www.wikidata.org/entity/Q2"}}}, "image": {"0": "Paulo Freire 1977.jpg"}, "notableWork": {"0": "Pedagogy of the Oppressed"}, "fieldOfWork": {"0": "philosophy", "1": "pedagogy"}}