{"id": "Q16570843", "name": "Gast\u00f3n Soublette", "countryOfCitizenship": {"0": "Chile"}, "dateOfBirth": {"0": "+1927-00-00T00:00:00Z"}, "occupation": {"0": "philosopher", "1": "aesthetician", "2": "musicologist", "3": "writer", "4": "academic"}, "educatedAt": {"0": {"name": "Colegio de los Sagrados Corazones de Valpara\u00edso", "coordinates": {"latitude": -33.018249, "longitude": -71.527629, "altitude": null, "precision": 1e-06, "globe": "http://www.wikidata.org/entity/Q2"}}, "1": {"name": "University of Chile", "coordinates": {"latitude": -33.44454888888889, "longitude": -70.65095388888889, "altitude": null, "precision": 2.7777777777777776e-07, "globe": "http://www.wikidata.org/entity/Q2"}}, "2": {"name": "Conservatoire de Paris", "coordinates": {"latitude": 48.888888888889, "longitude": 2.3908333333333, "altitude": null, "precision": 0.00027777777777778, "globe": "http://www.wikidata.org/entity/Q2"}}}, "employer": {"0": {"name": "Pontifical Catholic University of Chile", "coordinates": {"latitude": -33.441148, "longitude": -70.640694, "altitude": null, "precision": 1e-06, "globe": "http://www.wikidata.org/entity/Q2"}}, "1": {"name": "University of Chile", "coordinates": {"latitude": -33.44454888888889, "longitude": -70.65095388888889, "altitude": null, "precision": 2.7777777777777776e-07, "globe": "http://www.wikidata.org/entity/Q2"}}, "2": {"name": "Metropolitan University of Educational Sciences", "coordinates": {"latitude": -33.461808, "longitude": -70.597319, "altitude": null, "precision": 1e-06, "globe": "http://www.wikidata.org/entity/Q2"}}}, "image": {"0": "Soublette, Gaston -FAS 20181111 fRF05.jpg"}, "fieldOfWork": {"0": "aesthetics", "1": "folklore", "2": "Chilenidad", "3": "Chilean culture", "4": "Chilean folklore"}, "edges": {"student": {"0": {"id": "Q112684098", "name": "Lucy Oporto"}}}}