{"id": "Q16731152", "name": "Jennifer Lackey", "educatedAt": {"0": {"name": "Brown University", "coordinates": {"latitude": 41.82611111111111, "longitude": -71.40305555555555, "altitude": null, "precision": 0.0002777777777777778, "globe": "http://www.wikidata.org/entity/Q2"}}, "1": {"name": "University of Chicago", "coordinates": {"latitude": 41.789722222222, "longitude": -87.599722222222, "altitude": null, "precision": 0.00027777777777778, "globe": "http://www.wikidata.org/entity/Q2"}}, "2": {"name": "Saint Mary's College", "coordinates": {"latitude": 41.706744444444, "longitude": -86.257030555556, "altitude": null, "precision": 0.00027777777777778, "globe": "http://www.wikidata.org/entity/Q2"}}}, "countryOfCitizenship": {"0": "United States of America"}, "employer": {"0": {"name": "Northwestern University", "coordinates": {"latitude": 42.054853, "longitude": -87.673945, "altitude": null, "precision": null, "globe": "http://www.wikidata.org/entity/Q2"}}, "1": {"name": "Northwestern University", "coordinates": {"latitude": 42.054853, "longitude": -87.673945, "altitude": null, "precision": null, "globe": "http://www.wikidata.org/entity/Q2"}}, "2": {"name": "Northwestern University", "coordinates": {"latitude": 42.054853, "longitude": -87.673945, "altitude": null, "precision": null, "globe": "http://www.wikidata.org/entity/Q2"}}, "3": {"name": "Northwestern University", "coordinates": {"latitude": 42.054853, "longitude": -87.673945, "altitude": null, "precision": null, "globe": "http://www.wikidata.org/entity/Q2"}}, "4": {"name": "Northern Illinois University", "coordinates": {"latitude": 41.933888888889, "longitude": -88.777777777778, "altitude": null, "precision": 0.00027777777777778, "globe": "http://www.wikidata.org/entity/Q2"}}, "5": {"name": "Pomona College", "coordinates": {"latitude": 34.098055555555554, "longitude": -117.71388888888889, "altitude": null, "precision": 0.0002777777777777778, "globe": "http://www.wikidata.org/entity/Q2"}}}, "occupation": {"0": "philosopher"}, "image": {"0": "Jennifer Lackey.jpg"}}