{"id": "Q1691712", "name": "Joel Feinberg", "countryOfCitizenship": {"0": "United States of America"}, "employer": {"0": {"name": "Brown University", "coordinates": {"latitude": 41.82611111111111, "longitude": -71.40305555555555, "altitude": null, "precision": 0.0002777777777777778, "globe": "http://www.wikidata.org/entity/Q2"}}, "1": {"name": "Princeton University", "coordinates": {"latitude": 40.345277777778, "longitude": -74.656111111111, "altitude": null, "precision": 0.00027777777777778, "globe": "http://www.wikidata.org/entity/Q2"}}, "2": {"name": "University of Arizona", "coordinates": {"latitude": 32.231666666667, "longitude": -110.95194444444, "altitude": null, "precision": 0.00027777777777778, "globe": "http://www.wikidata.org/entity/Q2"}}, "3": {"name": "University of California, Los Angeles", "coordinates": {"latitude": 34.07222222222222, "longitude": -118.44416666666666, "altitude": null, "precision": 0.0002777777777777778, "globe": "http://www.wikidata.org/entity/Q2"}}, "4": {"name": "The Rockefeller University", "coordinates": {"latitude": 40.7625, "longitude": -73.955555555556, "altitude": null, "precision": 0.00027777777777778, "globe": "http://www.wikidata.org/entity/Q2"}}}, "dateOfBirth": {"0": "+1926-10-19T00:00:00Z"}, "dateOfDeath": {"0": "+2004-03-29T00:00:00Z"}, "educatedAt": {"0": {"name": "University of Michigan", "coordinates": {"latitude": 42.276944444444446, "longitude": -83.73805555555556, "altitude": null, "precision": 0.0002777777777777778, "globe": "http://www.wikidata.org/entity/Q2"}}}, "occupation": {"0": "philosopher", "1": "university teacher"}}