{"id": "Q176909", "name": "Walker Percy", "dateOfBirth": {"0": "+1916-05-28T00:00:00Z"}, "dateOfDeath": {"0": "+1990-05-10T00:00:00Z"}, "countryOfCitizenship": {"0": "United States of America"}, "occupation": {"0": "writer", "1": "novelist", "2": "philosopher", "3": "physician"}, "educatedAt": {"0": {"name": "Columbia University Vagelos College of Physicians and Surgeons", "coordinates": {"latitude": 40.841519, "longitude": -73.941139, "altitude": null, "precision": 1e-06, "globe": "http://www.wikidata.org/entity/Q2"}}, "1": {"name": "University of North Carolina at Chapel Hill", "coordinates": {"latitude": 35.908611111111, "longitude": -79.049166666667, "altitude": null, "precision": 0.00027777777777778, "globe": "http://www.wikidata.org/entity/Q2"}}, "2": {"name": "Columbia University", "coordinates": {"latitude": 40.8075, "longitude": -73.961944444444, "altitude": null, "precision": 0.00027777777777778, "globe": "http://www.wikidata.org/entity/Q2"}}, "3": {"name": "Greenville High School", "coordinates": {"latitude": 33.394, "longitude": -91.047, "altitude": null, "precision": 0.010759484502783, "globe": "http://www.wikidata.org/entity/Q2"}}}, "residence": {"0": {"name": "Birmingham", "coordinates": {"latitude": 33.5175, "longitude": -86.80944444444444, "altitude": null, "precision": 0.0002777777777777778, "globe": "http://www.wikidata.org/entity/Q2"}}, "1": {"name": "Louisiana", "coordinates": {"latitude": 31, "longitude": -92, "altitude": null, "precision": 1, "globe": "http://www.wikidata.org/entity/Q2"}}}, "employer": {"0": {"name": "Louisiana State University", "coordinates": {"latitude": 30.4145, "longitude": -91.1783, "altitude": null, "precision": 0.00027777777777778, "globe": "http://www.wikidata.org/entity/Q2"}}}, "image": {"0": "Walker Percy.jpg"}, "notableWork": {"0": "The Moviegoer"}}