{"id": "Q193871", "name": "Marshall McLuhan", "dateOfBirth": {"0": "+1911-07-21T00:00:00Z"}, "dateOfDeath": {"0": "+1980-12-31T00:00:00Z"}, "countryOfCitizenship": {"0": "Canada"}, "occupation": {"0": "philosopher", "1": "writer", "2": "university teacher", "3": "sociologist", "4": "literary critic", "5": "rhetorician"}, "educatedAt": {"0": {"name": "Trinity Hall", "coordinates": {"latitude": 52.205833333333, "longitude": 0.11611111111111, "altitude": null, "precision": null, "globe": "http://www.wikidata.org/entity/Q2"}}, "1": {"name": "University of Manitoba", "coordinates": {"latitude": 49.809444444444, "longitude": -97.132777777778, "altitude": null, "precision": 0.00027777777777778, "globe": "http://www.wikidata.org/entity/Q2"}}, "2": {"name": "Kelvin High School", "coordinates": {"latitude": 49.8731, "longitude": -97.1675, "altitude": null, "precision": 0.0001, "globe": "http://www.wikidata.org/entity/Q2"}}}, "image": {"0": "Marshall McLuhan.jpg"}, "fieldOfWork": {"0": "art history", "1": "literary studies", "2": "culturology", "3": "semantics", "4": "philosophy", "5": "religious studies", "6": "journalism", "7": "media ecology", "8": "linguistics", "9": "media studies"}, "employer": {"0": {"name": "University of Toronto", "coordinates": {"latitude": 43.662917, "longitude": -79.395746, "altitude": null, "precision": 1e-06, "globe": "http://www.wikidata.org/entity/Q2"}}, "1": {"name": "Fordham University", "coordinates": {"latitude": 40.86282744039587, "longitude": -73.88575234654104, "altitude": null, "precision": 1e-08, "globe": "http://www.wikidata.org/entity/Q2"}}, "2": {"name": "Saint Louis University", "coordinates": {"latitude": 38.63638888888889, "longitude": -90.23416666666667, "altitude": null, "precision": 0.0002777777777777778, "globe": "http://www.wikidata.org/entity/Q2"}}}}