{"id": "Q19364024", "name": "Adam Ziele\u0144czyk", "dateOfBirth": {"0": "+1880-04-29T00:00:00Z"}, "dateOfDeath": {"0": "+1943-00-00T00:00:00Z"}, "image": {"0": "Adam Ziele\u0144czyk.jpg"}, "educatedAt": {"0": {"name": "Heidelberg University", "coordinates": {"latitude": 49.410277777778, "longitude": 8.7063888888889, "altitude": null, "precision": 0.000277778, "globe": "http://www.wikidata.org/entity/Q2"}}, "1": {"name": "III Gimnazjum w Warszawie", "coordinates": ""}, "2": {"name": "Jagiellonian University", "coordinates": {"latitude": 50.060833333333, "longitude": 19.932777777778, "altitude": null, "precision": 0.00027777777777778, "globe": "http://www.wikidata.org/entity/Q2"}}, "3": {"name": "Ludwig Maximilian University of Munich", "coordinates": {"latitude": 48.150833333333, "longitude": 11.580277777778, "altitude": null, "precision": 0.00027777777777778, "globe": "http://www.wikidata.org/entity/Q2"}}, "4": {"name": "Humboldt University of Berlin", "coordinates": {"latitude": 52.518055555556, "longitude": 13.393333333333, "altitude": null, "precision": null, "globe": "http://www.wikidata.org/entity/Q2"}}}, "occupation": {"0": "historian", "1": "philosopher"}, "employer": {"0": {"name": "Free Polish University", "coordinates": {"latitude": 52.2103, "longitude": 20.9818, "altitude": null, "precision": 0.14660029316342, "globe": "http://www.wikidata.org/entity/Q2"}}, "1": {"name": "Ministry of Religious Affairs and Public Education (Poland)", "coordinates": ""}}, "countryOfCitizenship": {"0": "Poland"}}