{"id": "Q21163", "name": "Ferdinand T\u00f6nnies", "countryOfCitizenship": {"0": "Germany"}, "dateOfBirth": {"0": "+1855-07-26T00:00:00Z"}, "dateOfDeath": {"0": "+1936-04-09T00:00:00Z"}, "occupation": {"0": "sociologist", "1": "economist", "2": "philosopher", "3": "university teacher", "4": "author"}, "employer": {"0": {"name": "University of Kiel", "coordinates": {"latitude": 54.338888888889, "longitude": 10.1225, "altitude": null, "precision": null, "globe": "http://www.wikidata.org/entity/Q2"}}}, "educatedAt": {"0": {"name": "University of Bonn", "coordinates": {"latitude": 50.733888888889, "longitude": 7.1022222222222, "altitude": null, "precision": null, "globe": "http://www.wikidata.org/entity/Q2"}}, "1": {"name": "University of Jena", "coordinates": {"latitude": 50.928333333333, "longitude": 11.582222222222, "altitude": null, "precision": null, "globe": "http://www.wikidata.org/entity/Q2"}}, "2": {"name": "Humboldt University of Berlin", "coordinates": {"latitude": 52.518055555556, "longitude": 13.393333333333, "altitude": null, "precision": null, "globe": "http://www.wikidata.org/entity/Q2"}}, "3": {"name": "Leipzig University", "coordinates": {"latitude": 51.3387, "longitude": 12.378727777777778, "altitude": null, "precision": 2.777777777777778e-06, "globe": "http://www.wikidata.org/entity/Q2"}}}, "image": {"0": "Ferdinand T\u00f6nnies.jpg"}, "permanentDuplicatedItem": {"0": "Ferdinand T\u00f6nnies/\u00f6\u00f6"}, "studentOf": {"0": "Ernst Engel", "1": "Adolph Wagner", "2": "Richard Boeckh", "3": "Theodor Storm"}, "fieldOfWork": {"0": "sociology"}}