{"id": "Q221697", "name": "Hilary Putnam", "occupation": {"0": "mathematician", "1": "philosopher", "2": "university teacher", "3": "non-fiction writer", "4": "computer scientist"}, "countryOfCitizenship": {"0": "United States of America"}, "dateOfBirth": {"0": "+1926-07-31T00:00:00Z"}, "image": {"0": "Hilary Putnam.jpg"}, "educatedAt": {"0": {"name": "Harvard University", "coordinates": {"latitude": 42.374443888889, "longitude": -71.116943888889, "altitude": null, "precision": 2.77778e-06, "globe": "http://www.wikidata.org/entity/Q2"}}, "1": {"name": "University of Pennsylvania", "coordinates": {"latitude": 39.95388888888889, "longitude": -75.19305555555556, "altitude": null, "precision": 0.000277778, "globe": "http://www.wikidata.org/entity/Q2"}}, "2": {"name": "Central High School", "coordinates": {"latitude": 40.037222, "longitude": -75.138889, "altitude": null, "precision": 0.001, "globe": "http://www.wikidata.org/entity/Q2"}}, "3": {"name": "University of California, Los Angeles", "coordinates": {"latitude": 34.07222222222222, "longitude": -118.44416666666666, "altitude": null, "precision": 0.0002777777777777778, "globe": "http://www.wikidata.org/entity/Q2"}}}, "employer": {"0": {"name": "Princeton University", "coordinates": {"latitude": 40.345277777778, "longitude": -74.656111111111, "altitude": null, "precision": 0.00027777777777778, "globe": "http://www.wikidata.org/entity/Q2"}}, "1": {"name": "Harvard University", "coordinates": {"latitude": 42.374443888889, "longitude": -71.116943888889, "altitude": null, "precision": 2.77778e-06, "globe": "http://www.wikidata.org/entity/Q2"}}, "2": {"name": "Massachusetts Institute of Technology", "coordinates": {"latitude": 42.359722222222224, "longitude": -71.09194444444445, "altitude": null, "precision": 0.0002777777777777778, "globe": "http://www.wikidata.org/entity/Q2"}}, "3": {"name": "Northwestern University", "coordinates": {"latitude": 42.054853, "longitude": -87.673945, "altitude": null, "precision": null, "globe": "http://www.wikidata.org/entity/Q2"}}}, "dateOfDeath": {"0": "+2016-03-13T00:00:00Z"}, "residence": {"0": {"name": "Massachusetts", "coordinates": {"latitude": 42.3, "longitude": -71.8, "altitude": null, "precision": 0.016666666666667, "globe": "http://www.wikidata.org/entity/Q2"}}}, "fieldOfWork": {"0": "philosophy", "1": "philosophy of language", "2": "philosophy of mind", "3": "mathematical logic"}, "doctralStudent": {"0": "C. Ward Henson", "1": "David Frederick Isles", "2": "Frank Wilson Thompson", "3": "Miriam L. Lucian", "4": "Stephen Louis Bloom", "5": "Leslie Howard Tharp", "6": "Joan Donaldson Lukas", "7": "Norbert Hornstein", "8": "Ludger Herbert Viefhues-Bailey"}, "notableWork": {"0": "Reason, truth, and history"}}