{"id": "Q2336413", "name": "Stefan Gosepath", "countryOfCitizenship": {"0": "Germany"}, "employer": {"0": {"name": "Goethe University Frankfurt", "coordinates": {"latitude": 50.12791, "longitude": 8.66944, "altitude": null, "precision": 1e-05, "globe": "http://www.wikidata.org/entity/Q2"}}, "1": {"name": "Free University Berlin", "coordinates": {"latitude": 52.453055555556, "longitude": 13.290555555556, "altitude": null, "precision": null, "globe": "http://www.wikidata.org/entity/Q2"}}, "2": {"name": "University of Giessen", "coordinates": {"latitude": 50.580833333333, "longitude": 8.6763888888889, "altitude": null, "precision": 0.00027777777777778, "globe": "http://www.wikidata.org/entity/Q2"}}, "3": {"name": "University of Bremen", "coordinates": {"latitude": 53.108611111111, "longitude": 8.8536111111111, "altitude": null, "precision": null, "globe": "http://www.wikidata.org/entity/Q2"}}}, "dateOfBirth": {"0": "+1959-01-01T00:00:00Z"}, "occupation": {"0": "philosopher", "1": "university teacher"}, "educatedAt": {"0": {"name": "\u0433\u0456\u043c\u043d\u0430\u0437\u0456\u044f \u041f\u044d\u0442\u0440\u044b\u043d\u0443\u043c", "coordinates": {"latitude": 51.615, "longitude": 7.19425, "altitude": null, "precision": 0.001, "globe": "http://www.wikidata.org/entity/Q2"}}, "1": {"name": "University of T\u00fcbingen", "coordinates": {"latitude": 48.525, "longitude": 9.059, "altitude": null, "precision": null, "globe": "http://www.wikidata.org/entity/Q2"}}, "2": {"name": "Free University Berlin", "coordinates": {"latitude": 52.453055555556, "longitude": 13.290555555556, "altitude": null, "precision": null, "globe": "http://www.wikidata.org/entity/Q2"}}, "3": {"name": "Harvard University", "coordinates": {"latitude": 42.374443888889, "longitude": -71.116943888889, "altitude": null, "precision": 2.77778e-06, "globe": "http://www.wikidata.org/entity/Q2"}}}, "image": {"0": "Stefan Gosepath (14591974481) (cropped).jpg"}}