{"id": "Q23431", "name": "C. Anthony Anderson", "countryOfCitizenship": {"0": "United States of America"}, "dateOfBirth": {"0": "+1940-05-29T00:00:00Z"}, "employer": {"0": {"name": "University of Texas at Austin", "coordinates": {"latitude": 30.28614, "longitude": -97.73942, "altitude": null, "precision": null, "globe": "http://www.wikidata.org/entity/Q2"}}, "1": {"name": "University of Minnesota", "coordinates": {"latitude": 44.975, "longitude": -93.23527777777778, "altitude": null, "precision": 0.0002777777777777778, "globe": "http://www.wikidata.org/entity/Q2"}}, "2": {"name": "University of California, Santa Barbara", "coordinates": {"latitude": 34.4163232, "longitude": -119.8463925, "altitude": null, "precision": 1e-07, "globe": "http://www.wikidata.org/entity/Q2"}}}, "educatedAt": {"0": {"name": "University of California, Los Angeles", "coordinates": {"latitude": 34.07222222222222, "longitude": -118.44416666666666, "altitude": null, "precision": 0.0002777777777777778, "globe": "http://www.wikidata.org/entity/Q2"}}, "1": {"name": "University of Houston", "coordinates": {"latitude": 29.718922, "longitude": -95.339162, "altitude": null, "precision": 0.00027777777777778, "globe": "http://www.wikidata.org/entity/Q2"}}}, "occupation": {"0": "philosopher", "1": "university teacher"}}