{"id": "Q2346981", "name": "Steve Fuller", "countryOfCitizenship": {"0": "United States of America"}, "dateOfBirth": {"0": "+1959-07-12T00:00:00Z"}, "employer": {"0": {"name": "University of Warwick", "coordinates": {"latitude": 52.380080555556, "longitude": -1.5619305555556, "altitude": null, "precision": null, "globe": "http://www.wikidata.org/entity/Q2"}}}, "educatedAt": {"0": {"name": "Columbia University", "coordinates": {"latitude": 40.8075, "longitude": -73.961944444444, "altitude": null, "precision": 0.00027777777777778, "globe": "http://www.wikidata.org/entity/Q2"}}, "1": {"name": "University of Pittsburgh", "coordinates": {"latitude": 40.444565, "longitude": -79.953274, "altitude": null, "precision": 0.00027777777777778, "globe": "http://www.wikidata.org/entity/Q2"}}, "2": {"name": "Regis High School", "coordinates": {"latitude": 40.7795, "longitude": -73.9588, "altitude": null, "precision": 0.0001, "globe": "http://www.wikidata.org/entity/Q2"}}}, "occupation": {"0": "sociologist", "1": "university teacher", "2": "philosopher"}, "image": {"0": "Steve William Fuller 2011.jpg"}, "residence": {"0": {"name": "Coventry", "coordinates": {"latitude": 52.416666666667, "longitude": -1.5166666666667, "altitude": null, "precision": 0.016666666666667, "globe": "http://www.wikidata.org/entity/Q2"}}}}