{"id": "Q25820", "name": "Thomas Young", "countryOfCitizenship": {"0": "United Kingdom of Great Britain and Ireland"}, "dateOfBirth": {"0": "+1773-06-13T00:00:00Z"}, "dateOfDeath": {"0": "+1829-05-10T00:00:00Z"}, "educatedAt": {"0": {"name": "University of Edinburgh", "coordinates": {"latitude": 55.94738888888889, "longitude": -3.1871944444444447, "altitude": null, "precision": 2.777777777777778e-05, "globe": "http://www.wikidata.org/entity/Q2"}}, "1": {"name": "Emmanuel College", "coordinates": {"latitude": 52.203635, "longitude": 0.123663, "altitude": null, "precision": 1e-06, "globe": "http://www.wikidata.org/entity/Q2"}}, "2": {"name": "University of G\u00f6ttingen", "coordinates": {"latitude": 51.533979833333, "longitude": 9.93792, "altitude": null, "precision": 2.7777777777778e-08, "globe": "http://www.wikidata.org/entity/Q2"}}, "3": {"name": "St George's, University of London", "coordinates": {"latitude": 51.426944444444, "longitude": -0.17472222222222, "altitude": null, "precision": null, "globe": "http://www.wikidata.org/entity/Q2"}}, "4": {"name": "\u5c3c\u59c6\u5e94\u7528\u79d1\u6280\u5b66\u9662", "coordinates": ""}}, "image": {"0": "Thomas Young by Briggs.jpg"}, "occupation": {"0": "astronomer", "1": "physicist", "2": "anthropologist", "3": "physician", "4": "archaeologist", "5": "university teacher", "6": "physiologist", "7": "entomologist", "8": "egyptologist", "9": "musician", "10": "linguist", "11": "philosopher", "12": "botanist"}, "fieldOfWork": {"0": "physics", "1": "mechanics", "2": "linguistics", "3": "materials science"}, "residence": {"0": {"name": "48, Welbeck Street W1", "coordinates": {"latitude": 51.517759, "longitude": -0.149712, "altitude": null, "precision": 1e-06, "globe": "http://www.wikidata.org/entity/Q2"}}}, "employer": {"0": {"name": "Royal Society", "coordinates": {"latitude": 51.50611111111111, "longitude": -0.1322222222222222, "altitude": null, "precision": 0.0002777777777777778, "globe": "http://www.wikidata.org/entity/Q2"}}}, "notableWork": {"0": "double-slit experiment", "1": "Young's modulus"}, "edges": {"influenced": {"0": {"id": "Q937", "name": "Albert Einstein"}}}}