{"id": "Q297726", "name": "Hippolyte Taine", "occupation": {"0": "philosopher", "1": "historian", "2": "writer", "3": "art historian", "4": "literary critic"}, "countryOfCitizenship": {"0": "France"}, "educatedAt": {"0": {"name": "Lyc\u00e9e Condorcet", "coordinates": {"latitude": 48.874722, "longitude": 2.327222, "altitude": null, "precision": 1e-06, "globe": "http://www.wikidata.org/entity/Q2"}}, "1": {"name": "\u00c9cole Normale Sup\u00e9rieure", "coordinates": {"latitude": 48.841944444444, "longitude": 2.3444444444444, "altitude": null, "precision": 0.00027777777777778, "globe": "http://www.wikidata.org/entity/Q2"}}}, "dateOfBirth": {"0": "+1828-04-21T00:00:00Z"}, "dateOfDeath": {"0": "+1893-03-05T00:00:00Z"}, "image": {"0": "Hippolyte taine.jpg"}, "fieldOfWork": {"0": "philosophy"}, "notableWork": {"0": "Los or\u00edgenes de la Francia contempor\u00e1nea", "1": "Philosophie de l'art", "2": "Essai sur Tite-Live", "3": "History of English Literature", "4": "Le Positivisme anglais", "5": "Notes and Opinions of Mr. Frederick-Graindorge"}, "employer": {"0": {"name": "Beaux-Arts de Paris", "coordinates": {"latitude": 48.85680555555555, "longitude": 2.333277777777778, "altitude": null, "precision": 2.777777777777778e-05, "globe": "http://www.wikidata.org/entity/Q2"}}, "1": {"name": "University of Oxford", "coordinates": {"latitude": 51.755, "longitude": -1.255, "altitude": null, "precision": 0.0002777777777777778, "globe": "http://www.wikidata.org/entity/Q2"}}, "2": {"name": "\u00c9cole Sp\u00e9ciale Militaire de Saint-Cyr", "coordinates": {"latitude": 47.9453, "longitude": -2.1522, "altitude": null, "precision": null, "globe": "http://www.wikidata.org/entity/Q2"}}}, "movement": {"0": "positivism"}}