{"id": "Q29820593", "name": "Agn\u00e8s Gayraud", "dateOfBirth": {"0": "+1979-02-19T00:00:00Z"}, "occupation": {"0": "philosopher", "1": "journalist", "2": "singer-songwriter"}, "countryOfCitizenship": {"0": "France"}, "image": {"0": "La F\u00e9line - Agn\u00e8s Gayraud.JPG"}, "educatedAt": {"0": {"name": "lyc\u00e9e Pierre-de-Fermat", "coordinates": {"latitude": 43.6032, "longitude": 1.43897, "altitude": null, "precision": 0.012405384874356, "globe": "http://www.wikidata.org/entity/Q2"}}, "1": {"name": "\u00c9cole Normale Sup\u00e9rieure", "coordinates": {"latitude": 48.841944444444, "longitude": 2.3444444444444, "altitude": null, "precision": 0.00027777777777778, "globe": "http://www.wikidata.org/entity/Q2"}}, "2": {"name": "Paris-Sorbonne University - Paris IV", "coordinates": {"latitude": 48.848333333333, "longitude": 2.3427777777778, "altitude": null, "precision": 0.00027777777777778, "globe": "http://www.wikidata.org/entity/Q2"}}}, "employer": {"0": {"name": "Paris-Sorbonne University - Paris IV", "coordinates": {"latitude": 48.848333333333, "longitude": 2.3427777777778, "altitude": null, "precision": 0.00027777777777778, "globe": "http://www.wikidata.org/entity/Q2"}}, "1": {"name": "Stanford University", "coordinates": {"latitude": 37.4275, "longitude": -122.17, "altitude": null, "precision": 0.0002777777777777778, "globe": "http://www.wikidata.org/entity/Q2"}}, "2": {"name": "Villa Arson", "coordinates": {"latitude": 43.721, "longitude": 7.253, "altitude": null, "precision": 1e-06, "globe": "http://www.wikidata.org/entity/Q2"}}, "3": {"name": "Lib\u00e9ration", "coordinates": ""}, "4": {"name": "Philosophie Magazine", "coordinates": ""}}}