{"id": "Q311772", "name": "Donald Davidson", "dateOfBirth": {"0": "+1917-03-06T00:00:00Z"}, "dateOfDeath": {"0": "+2003-08-30T00:00:00Z"}, "countryOfCitizenship": {"0": "United States of America"}, "occupation": {"0": "philosopher", "1": "university teacher"}, "educatedAt": {"0": {"name": "Harvard University", "coordinates": {"latitude": 42.374443888889, "longitude": -71.116943888889, "altitude": null, "precision": 2.77778e-06, "globe": "http://www.wikidata.org/entity/Q2"}}, "1": {"name": "Staten Island Academy", "coordinates": {"latitude": 40.5947, "longitude": -74.1092, "altitude": null, "precision": 0.0001, "globe": "http://www.wikidata.org/entity/Q2"}}}, "employer": {"0": {"name": "Princeton University", "coordinates": {"latitude": 40.345277777778, "longitude": -74.656111111111, "altitude": null, "precision": 0.00027777777777778, "globe": "http://www.wikidata.org/entity/Q2"}}, "1": {"name": "University of California, Berkeley", "coordinates": {"latitude": 37.87, "longitude": -122.259, "altitude": null, "precision": 0.00027777777777778, "globe": "http://www.wikidata.org/entity/Q2"}}, "2": {"name": "University of Chicago", "coordinates": {"latitude": 41.789722222222, "longitude": -87.599722222222, "altitude": null, "precision": 0.00027777777777778, "globe": "http://www.wikidata.org/entity/Q2"}}, "3": {"name": "Stanford University", "coordinates": {"latitude": 37.4275, "longitude": -122.17, "altitude": null, "precision": 0.0002777777777777778, "globe": "http://www.wikidata.org/entity/Q2"}}, "4": {"name": "The Rockefeller University", "coordinates": {"latitude": 40.7625, "longitude": -73.955555555556, "altitude": null, "precision": 0.00027777777777778, "globe": "http://www.wikidata.org/entity/Q2"}}}, "residence": {"0": {"name": "Berkeley", "coordinates": {"latitude": 37.870277777778, "longitude": -122.26805555556, "altitude": null, "precision": 0.00027777777777778, "globe": "http://www.wikidata.org/entity/Q2"}}}, "fieldOfWork": {"0": "philosophy"}}