{"id": "Q311687", "name": "Giorgio Agamben", "occupation": {"0": "philosopher", "1": "writer", "2": "university teacher", "3": "poet lawyer", "4": "essayist", "5": "literary scholar"}, "countryOfCitizenship": {"0": "Italy"}, "dateOfBirth": {"0": "+1942-04-22T00:00:00Z"}, "employer": {"0": {"name": "Northwestern University", "coordinates": {"latitude": 42.054853, "longitude": -87.673945, "altitude": null, "precision": null, "globe": "http://www.wikidata.org/entity/Q2"}}, "1": {"name": "University of California, Berkeley", "coordinates": {"latitude": 37.87, "longitude": -122.259, "altitude": null, "precision": 0.00027777777777778, "globe": "http://www.wikidata.org/entity/Q2"}}, "2": {"name": "European Graduate School", "coordinates": {"latitude": 46.11457, "longitude": 7.92939, "altitude": null, "precision": 0.00027777777777778, "globe": "http://www.wikidata.org/entity/Q2"}}, "3": {"name": "Warburg Institute", "coordinates": ""}, "4": {"name": "University of D\u00fcsseldorf", "coordinates": {"latitude": 51.1903, "longitude": 6.794169444444444, "altitude": null, "precision": 2.777777777777778e-06, "globe": "http://www.wikidata.org/entity/Q2"}}, "5": {"name": "University of Macerata", "coordinates": {"latitude": 43.29929370751469, "longitude": 13.449885160339793, "altitude": null, "precision": 1e-08, "globe": "http://www.wikidata.org/entity/Q2"}}, "6": {"name": "IUAV University of Venice", "coordinates": {"latitude": 45.4331, "longitude": 12.3149, "altitude": null, "precision": 1e-06, "globe": "http://www.wikidata.org/entity/Q2"}}, "7": {"name": "New School", "coordinates": {"latitude": 40.73534, "longitude": -73.99704, "altitude": null, "precision": 2.77777777778e-06, "globe": "http://www.wikidata.org/entity/Q2"}}, "8": {"name": "University of Verona", "coordinates": {"latitude": 45.436667, "longitude": 11.003611, "altitude": null, "precision": 0.00027777777777778, "globe": "http://www.wikidata.org/entity/Q2"}}, "9": {"name": "Coll\u00e8ge international de philosophie", "coordinates": ""}, "10": {"name": "Universit\u00e0 della Svizzera italiana", "coordinates": {"latitude": 46.0108, "longitude": 8.95822, "altitude": null, "precision": 2.77777777778e-06, "globe": "http://www.wikidata.org/entity/Q2"}}}, "educatedAt": {"0": {"name": "Sapienza University of Rome", "coordinates": {"latitude": 41.903333333333, "longitude": 12.515833333333, "altitude": null, "precision": null, "globe": "http://www.wikidata.org/entity/Q2"}}}, "movement": {"0": "continental philosophy"}, "image": {"0": "Agamben.png"}, "notableWork": {"0": "Where Are We Now? The Epidemic as Politics"}, "fieldOfWork": {"0": "philosophy", "1": "philosophy and politics", "2": "aesthetics", "3": "creative and professional writing"}}