{"id": "Q312295", "name": "Giovanni Gentile", "dateOfDeath": {"0": "+1944-04-15T00:00:00Z"}, "dateOfBirth": {"0": "+1875-05-29T00:00:00Z"}, "occupation": {"0": "philosopher", "1": "pedagogue", "2": "politician", "3": "university teacher", "4": "literary critic"}, "image": {"0": "Giovanni Gentile.png"}, "countryOfCitizenship": {"0": "Kingdom of Italy"}, "employer": {"0": {"name": "Istituto comprensivo Campobasso \"Mario Pagano\"", "coordinates": {"latitude": 41.5596, "longitude": 14.66126, "altitude": null, "precision": 1e-06, "globe": "http://www.wikidata.org/entity/Q2"}}, "1": {"name": "University of Palermo", "coordinates": {"latitude": 38.11768, "longitude": 13.370131, "altitude": null, "precision": 1e-07, "globe": "http://www.wikidata.org/entity/Q2"}}, "2": {"name": "University of Pisa", "coordinates": {"latitude": 43.716508333333, "longitude": 10.398458333333, "altitude": null, "precision": null, "globe": "http://www.wikidata.org/entity/Q2"}}, "3": {"name": "Sapienza University of Rome", "coordinates": {"latitude": 41.903333333333, "longitude": 12.515833333333, "altitude": null, "precision": null, "globe": "http://www.wikidata.org/entity/Q2"}}, "4": {"name": "Scuola Normale Superiore", "coordinates": {"latitude": 43.719611, "longitude": 10.400225, "altitude": null, "precision": 1e-06, "globe": "http://www.wikidata.org/entity/Q2"}}, "5": {"name": "Bocconi University", "coordinates": {"latitude": 45.450277777778, "longitude": 9.1897222222222, "altitude": null, "precision": null, "globe": "http://www.wikidata.org/entity/Q2"}}}, "educatedAt": {"0": {"name": "Scuola Normale Superiore", "coordinates": {"latitude": 43.719611, "longitude": 10.400225, "altitude": null, "precision": 1e-06, "globe": "http://www.wikidata.org/entity/Q2"}}, "1": {"name": "Liceo classico statale L. Ximenes", "coordinates": ""}, "2": {"name": "University of Florence", "coordinates": {"latitude": 43.77777, "longitude": 11.25951, "altitude": null, "precision": 1e-05, "globe": "http://www.wikidata.org/entity/Q2"}}}, "fieldOfWork": {"0": "philosophy"}, "timePeriod": {"0": "Italian Fascism"}, "movement": {"0": "Hegelianism"}, "studentOf": {"0": "Alessandro d'Ancona", "1": "Amedeo Crivellucci"}, "edges": {"influencedBy": {"0": {"id": "Q9235", "name": "Georg Wilhelm Friedrich Hegel"}}, "influenced": {"0": {"id": "Q83003", "name": "Antonio Gramsci"}}}}