{"id": "Q3164124", "name": "Jean-Baptiste Gourinat", "educatedAt": {"0": {"name": "Lyc\u00e9e Thiers", "coordinates": {"latitude": 43.2965, "longitude": 5.38279, "altitude": null, "precision": 0.01, "globe": "http://www.wikidata.org/entity/Q2"}}, "1": {"name": "\u00c9cole Normale Sup\u00e9rieure", "coordinates": {"latitude": 48.841944444444, "longitude": 2.3444444444444, "altitude": null, "precision": 0.00027777777777778, "globe": "http://www.wikidata.org/entity/Q2"}}, "2": {"name": "Paris-Sorbonne University - Paris IV", "coordinates": {"latitude": 48.848333333333, "longitude": 2.3427777777778, "altitude": null, "precision": 0.00027777777777778, "globe": "http://www.wikidata.org/entity/Q2"}}}, "dateOfBirth": {"0": "+1964-01-01T00:00:00Z"}, "countryOfCitizenship": {"0": "France"}, "occupation": {"0": "philosopher"}, "employer": {"0": {"name": "Centre de Recherches sur la Pens\u00e9e Antique", "coordinates": {"latitude": 48.848477, "longitude": 2.343063, "altitude": null, "precision": 1e-06, "globe": "http://www.wikidata.org/entity/Q2"}}, "1": {"name": "National Center for Scientific Research", "coordinates": {"latitude": 48.8477, "longitude": 2.264, "altitude": null, "precision": 2.77777777778e-06, "globe": "http://www.wikidata.org/entity/Q2"}}}, "doctralStudent": {"0": "Andreea-Maria Lemnaru"}}