{"id": "Q326000", "name": "Maurice Halbwachs", "countryOfCitizenship": {"0": "France"}, "educatedAt": {"0": {"name": "\u00c9cole Normale Sup\u00e9rieure", "coordinates": {"latitude": 48.841944444444, "longitude": 2.3444444444444, "altitude": null, "precision": 0.00027777777777778, "globe": "http://www.wikidata.org/entity/Q2"}}, "1": {"name": "University of G\u00f6ttingen", "coordinates": {"latitude": 51.533979833333, "longitude": 9.93792, "altitude": null, "precision": 2.7777777777778e-08, "globe": "http://www.wikidata.org/entity/Q2"}}, "2": {"name": "agr\u00e9gation de philosophie", "coordinates": ""}, "3": {"name": "University of Paris", "coordinates": {"latitude": 48.8486, "longitude": 2.34333, "altitude": null, "precision": 0.013651149849302, "globe": "http://www.wikidata.org/entity/Q2"}}}, "dateOfBirth": {"0": "+1877-03-11T00:00:00Z"}, "dateOfDeath": {"0": "+1945-03-16T00:00:00Z"}, "occupation": {"0": "sociologist", "1": "psychologist", "2": "philosopher", "3": "professor", "4": "musicologist", "5": "statistician"}, "employer": {"0": {"name": "University of Chicago", "coordinates": {"latitude": 41.789722222222, "longitude": -87.599722222222, "altitude": null, "precision": 0.00027777777777778, "globe": "http://www.wikidata.org/entity/Q2"}}, "1": {"name": "Coll\u00e8ge de France", "coordinates": {"latitude": 48.84917, "longitude": 2.34556, "altitude": null, "precision": 2.7777777777778e-05, "globe": "http://www.wikidata.org/entity/Q2"}}, "2": {"name": "University of Paris", "coordinates": {"latitude": 48.8486, "longitude": 2.34333, "altitude": null, "precision": 0.013651149849302, "globe": "http://www.wikidata.org/entity/Q2"}}, "3": {"name": "University of Strasbourg", "coordinates": {"latitude": 48.580277777778, "longitude": 7.7644444444444, "altitude": null, "precision": null, "globe": "http://www.wikidata.org/entity/Q2"}}, "4": {"name": "University of Caen Normandy", "coordinates": {"latitude": 49.190555555556, "longitude": -0.36444444444444, "altitude": null, "precision": null, "globe": "http://www.wikidata.org/entity/Q2"}}}, "image": {"0": "Portrait de Maurice Halbwachs.jpg"}, "fieldOfWork": {"0": "philosophy"}, "doctralStudent": {"0": "Slobodan S. Zarkovich"}, "edges": {"studentOf": {"0": {"id": "Q15948", "name": "\u00c9mile Durkheim"}}}}