{"id": "Q3288047", "name": "Marc Froment-Meurice", "educatedAt": {"0": {"name": "Lyc\u00e9e Condorcet", "coordinates": {"latitude": 48.874722, "longitude": 2.327222, "altitude": null, "precision": 1e-06, "globe": "http://www.wikidata.org/entity/Q2"}}, "1": {"name": "Lyc\u00e9e Louis-le-Grand", "coordinates": {"latitude": 48.848056, "longitude": 2.344528, "altitude": null, "precision": 2.7777777777778e-05, "globe": "http://www.wikidata.org/entity/Q2"}}, "2": {"name": "Lyc\u00e9e Pasteur", "coordinates": {"latitude": 48.88611111, "longitude": 2.27388889, "altitude": null, "precision": 0.00027777777777778, "globe": "http://www.wikidata.org/entity/Q2"}}, "3": {"name": "Paris Nanterre University", "coordinates": {"latitude": 48.90391243962806, "longitude": 2.2134523725173545, "altitude": null, "precision": 1e-08, "globe": "http://www.wikidata.org/entity/Q2"}}, "4": {"name": "University of Vincennes", "coordinates": {"latitude": 48.83, "longitude": 2.4333, "altitude": null, "precision": 0.013646081614657, "globe": "http://www.wikidata.org/entity/Q2"}}}, "dateOfBirth": {"0": "+1953-10-30T00:00:00Z"}, "countryOfCitizenship": {"0": "France"}, "occupation": {"0": "philosopher"}, "dateOfDeath": {"0": "+2019-06-25T00:00:00Z"}, "employer": {"0": {"name": "Institut national de l'audiovisuel", "coordinates": {"latitude": 48.83653, "longitude": 2.53268, "altitude": null, "precision": 1e-07, "globe": "http://www.wikidata.org/entity/Q2"}}, "1": {"name": "Washington State University", "coordinates": {"latitude": 46.7252, "longitude": -117.1596, "altitude": null, "precision": 0.00027777777777778, "globe": "http://www.wikidata.org/entity/Q2"}}}}