{"id": "Q3398798", "name": "Richard I. Aaron", "dateOfBirth": {"0": "+1901-11-06T00:00:00Z"}, "dateOfDeath": {"0": "+1987-03-29T00:00:00Z"}, "countryOfCitizenship": {"0": "Wales"}, "occupation": {"0": "philosopher", "1": "epistemologist"}, "employer": {"0": {"name": "Yale University", "coordinates": {"latitude": 41.311111111111, "longitude": -72.926666666667, "altitude": null, "precision": null, "globe": "http://www.wikidata.org/entity/Q2"}}, "1": {"name": "Swansea University", "coordinates": {"latitude": 51.609722222222224, "longitude": -3.9805555555555556, "altitude": null, "precision": 0.0002777777777777778, "globe": "http://www.wikidata.org/entity/Q2"}}, "2": {"name": "Aberystwyth University", "coordinates": {"latitude": 52.41806, "longitude": -4.06576, "altitude": null, "precision": null, "globe": "http://www.wikidata.org/entity/Q2"}}, "3": {"name": "Efrydiau athronyddol", "coordinates": ""}}, "fieldOfWork": {"0": "epistemology", "1": "history of philosophy", "2": "metaphysics", "3": "philosophy"}, "educatedAt": {"0": {"name": "Oriel College", "coordinates": {"latitude": 51.751567, "longitude": -1.253703, "altitude": null, "precision": 1e-06, "globe": "http://www.wikidata.org/entity/Q2"}}, "1": {"name": "Cardiff University", "coordinates": {"latitude": 51.487433333333, "longitude": -3.1782305555556, "altitude": null, "precision": 2.7777777777778e-06, "globe": "http://www.wikidata.org/entity/Q2"}}, "2": {"name": "Ysgol Gyfun Ystalyfera", "coordinates": {"latitude": 51.7643, "longitude": -3.7831, "altitude": null, "precision": 0.014514756667213, "globe": "http://www.wikidata.org/entity/Q2"}}}}