{"id": "Q347362", "name": "Fredric Jameson", "countryOfCitizenship": {"0": "United States of America"}, "dateOfBirth": {"0": "+1934-04-14T00:00:00Z"}, "occupation": {"0": "essayist", "1": "political scientist", "2": "writer", "3": "professor", "4": "literary critic", "5": "sociologist", "6": "journalist", "7": "editor", "8": "politician", "9": "philosopher", "10": "literary theorist", "11": "teacher"}, "educatedAt": {"0": {"name": "Haverford College", "coordinates": {"latitude": 40.00972222222222, "longitude": -75.30722222222222, "altitude": null, "precision": 0.0002777777777777778, "globe": "http://www.wikidata.org/entity/Q2"}}, "1": {"name": "Yale University", "coordinates": {"latitude": 41.311111111111, "longitude": -72.926666666667, "altitude": null, "precision": null, "globe": "http://www.wikidata.org/entity/Q2"}}, "2": {"name": "Moorestown Friends School", "coordinates": {"latitude": 39.9651, "longitude": -74.9415, "altitude": null, "precision": 0.0001, "globe": "http://www.wikidata.org/entity/Q2"}}}, "residence": {"0": {"name": "North Carolina", "coordinates": {"latitude": 35.5, "longitude": -80, "altitude": null, "precision": 0.1, "globe": "http://www.wikidata.org/entity/Q2"}}, "1": {"name": "Cleveland", "coordinates": {"latitude": 41.482222222222, "longitude": -81.669722222222, "altitude": null, "precision": 0.00027777777777778, "globe": "http://www.wikidata.org/entity/Q2"}}}, "influencedBy": {"0": "Bertolt Brecht"}, "employer": {"0": {"name": "Duke University", "coordinates": {"latitude": 36.001111111111, "longitude": -78.938888888889, "altitude": null, "precision": 0.00027777777777778, "globe": "http://www.wikidata.org/entity/Q2"}}}, "image": {"0": "Fredric Jameson no Fronteiras Porto Alegre (5765587378).jpg"}, "doctralStudent": {"0": "Kim Stanley Robinson"}, "notableWork": {"0": "Raymond Chandler"}}