{"id": "Q349109", "name": "Israel Kirzner", "countryOfCitizenship": {"0": "United States of America"}, "dateOfBirth": {"0": "+1930-02-13T00:00:00Z"}, "occupation": {"0": "economist", "1": "rabbi", "2": "writer", "3": "university teacher", "4": "ethicist"}, "educatedAt": {"0": {"name": "University of Cape Town", "coordinates": {"latitude": -33.9575, "longitude": 18.460555555556, "altitude": null, "precision": null, "globe": "http://www.wikidata.org/entity/Q2"}}, "1": {"name": "New York University", "coordinates": {"latitude": 40.73, "longitude": -73.995, "altitude": null, "precision": 0.00027777777777778, "globe": "http://www.wikidata.org/entity/Q2"}}, "2": {"name": "Brooklyn College", "coordinates": {"latitude": 40.631111111111, "longitude": -73.9525, "altitude": null, "precision": null, "globe": "http://www.wikidata.org/entity/Q2"}}, "3": {"name": "Yeshiva Rabbi Chaim Berlin", "coordinates": {"latitude": 40.6272, "longitude": -73.963, "altitude": null, "precision": 0.0001, "globe": "http://www.wikidata.org/entity/Q2"}}, "4": {"name": "University of London", "coordinates": {"latitude": 51.521111111111, "longitude": -0.12888888888889, "altitude": null, "precision": null, "globe": "http://www.wikidata.org/entity/Q2"}}}, "employer": {"0": {"name": "New York University", "coordinates": {"latitude": 40.73, "longitude": -73.995, "altitude": null, "precision": 0.00027777777777778, "globe": "http://www.wikidata.org/entity/Q2"}}}, "image": {"0": "Israel Kirzner.jpg"}, "doctralStudent": {"0": "Donald Charles Lavoie"}}