{"id": "Q3559521", "name": "Vincent Carraud", "countryOfCitizenship": {"0": "France"}, "dateOfBirth": {"0": "+1957-12-18T00:00:00Z"}, "image": {"0": "VC.JPG"}, "occupation": {"0": "philosopher", "1": "philosophy historian", "2": "professeur des universit\u00e9s", "3": "research fellow"}, "educatedAt": {"0": {"name": "\u00c9cole Normale Sup\u00e9rieure", "coordinates": {"latitude": 48.841944444444, "longitude": 2.3444444444444, "altitude": null, "precision": 0.00027777777777778, "globe": "http://www.wikidata.org/entity/Q2"}}, "1": {"name": "University of Poitiers", "coordinates": {"latitude": 46.586111111111, "longitude": 0.34388888888889, "altitude": null, "precision": 0.00027777777777778, "globe": "http://www.wikidata.org/entity/Q2"}}}, "employer": {"0": {"name": "Paris 12 University", "coordinates": {"latitude": 48.788056, "longitude": 2.444167, "altitude": null, "precision": 1e-06, "globe": "http://www.wikidata.org/entity/Q2"}}, "1": {"name": "University of Caen Normandy", "coordinates": {"latitude": 49.190555555556, "longitude": -0.36444444444444, "altitude": null, "precision": null, "globe": "http://www.wikidata.org/entity/Q2"}}, "2": {"name": "Catholic University of Paris", "coordinates": {"latitude": 48.84801513010181, "longitude": 2.3299361601076343, "altitude": null, "precision": 2.777777777777778e-06, "globe": "http://www.wikidata.org/entity/Q2"}}, "3": {"name": "Paris-Sorbonne University - Paris IV", "coordinates": {"latitude": 48.848333333333, "longitude": 2.3427777777778, "altitude": null, "precision": 0.00027777777777778, "globe": "http://www.wikidata.org/entity/Q2"}}}, "doctralStudent": {"0": "Francesco Marrone"}}