{"id": "Q356069", "name": "Kenneth Waltz", "occupation": {"0": "university teacher", "1": "political scientist", "2": "philosopher", "3": "politician"}, "dateOfBirth": {"0": "+1924-06-08T00:00:00Z"}, "dateOfDeath": {"0": "+2013-05-12T00:00:00Z"}, "countryOfCitizenship": {"0": "United States of America"}, "educatedAt": {"0": {"name": "Columbia University", "coordinates": {"latitude": 40.8075, "longitude": -73.961944444444, "altitude": null, "precision": 0.00027777777777778, "globe": "http://www.wikidata.org/entity/Q2"}}, "1": {"name": "Oberlin College", "coordinates": {"latitude": 41.293055555555554, "longitude": -82.22166666666666, "altitude": null, "precision": 0.0002777777777777778, "globe": "http://www.wikidata.org/entity/Q2"}}}, "employer": {"0": {"name": "University of California, Berkeley", "coordinates": {"latitude": 37.87, "longitude": -122.259, "altitude": null, "precision": 0.00027777777777778, "globe": "http://www.wikidata.org/entity/Q2"}}, "1": {"name": "Columbia University", "coordinates": {"latitude": 40.8075, "longitude": -73.961944444444, "altitude": null, "precision": 0.00027777777777778, "globe": "http://www.wikidata.org/entity/Q2"}}, "2": {"name": "Brandeis University", "coordinates": {"latitude": 42.36566, "longitude": -71.25974, "altitude": null, "precision": 1e-06, "globe": "http://www.wikidata.org/entity/Q2"}}, "3": {"name": "Swarthmore College", "coordinates": {"latitude": 39.905, "longitude": -75.353888888889, "altitude": null, "precision": 0.00027777777777778, "globe": "http://www.wikidata.org/entity/Q2"}}}, "image": {"0": "\u041a\u0435\u043d\u043d\u0435\u0442 \u0412\u043e\u043b\u0442\u0446.jpg"}, "fieldOfWork": {"0": "international relations", "1": "political science"}, "doctralStudent": {"0": "Barry Posen"}}