{"id": "Q379900", "name": "Samuel Alexander", "countryOfCitizenship": {"0": "United Kingdom", "1": "Australia"}, "dateOfBirth": {"0": "+1859-01-06T00:00:00Z"}, "dateOfDeath": {"0": "+1938-09-13T00:00:00Z"}, "educatedAt": {"0": {"name": "Balliol College", "coordinates": {"latitude": 51.7547, "longitude": -1.2578, "altitude": null, "precision": 0.0001, "globe": "http://www.wikidata.org/entity/Q2"}}, "1": {"name": "University of Melbourne", "coordinates": {"latitude": -37.7963, "longitude": 144.9614, "altitude": null, "precision": 2.77777777778e-06, "globe": "http://www.wikidata.org/entity/Q2"}}, "2": {"name": "Wesley College", "coordinates": {"latitude": -37.8492, "longitude": 144.982, "altitude": null, "precision": 0.0001, "globe": "http://www.wikidata.org/entity/Q2"}}}, "image": {"0": "SamuelAlexander.gif"}, "occupation": {"0": "philosopher", "1": "university teacher"}, "employer": {"0": {"name": "University of Manchester", "coordinates": {"latitude": 53.465555555556, "longitude": -2.2336111111111, "altitude": null, "precision": null, "globe": "http://www.wikidata.org/entity/Q2"}}, "1": {"name": "Victoria University of Manchester", "coordinates": {"latitude": 53.4675, "longitude": -2.2325, "altitude": null, "precision": 0.0002777777777777778, "globe": "http://www.wikidata.org/entity/Q2"}}}, "fieldOfWork": {"0": "metaphysics", "1": "aesthetics", "2": "ethics"}}