{"id": "Q381848", "name": "Patrick Geddes", "countryOfCitizenship": {"0": "United Kingdom", "1": "France"}, "movement": {"0": "Scottish Renaissance"}, "dateOfBirth": {"0": "+1854-10-02T00:00:00Z"}, "dateOfDeath": {"0": "+1932-04-17T00:00:00Z"}, "occupation": {"0": "urban planner", "1": "sociologist", "2": "ecologist", "3": "botanist", "4": "scientific illustrator", "5": "philosopher", "6": "biologist"}, "image": {"0": "Patrick Geddes (cropped).jpg"}, "educatedAt": {"0": {"name": "Royal School of Mines", "coordinates": {"latitude": 51.49977388888889, "longitude": -0.17570694444444443, "altitude": null, "precision": 2.7777777777777776e-07, "globe": "http://www.wikidata.org/entity/Q2"}}, "1": {"name": "Imperial College London", "coordinates": {"latitude": 51.498308, "longitude": -0.176882, "altitude": null, "precision": 0.00027777777777778, "globe": "http://www.wikidata.org/entity/Q2"}}, "2": {"name": "Perth Academy", "coordinates": ""}}, "fieldOfWork": {"0": "biology"}, "employer": {"0": {"name": "University of Dundee", "coordinates": {"latitude": 56.457222222222, "longitude": -2.9802777777778, "altitude": null, "precision": 0.00027777777777778, "globe": "http://www.wikidata.org/entity/Q2"}}, "1": {"name": "University of Edinburgh", "coordinates": {"latitude": 55.94738888888889, "longitude": -3.1871944444444447, "altitude": null, "precision": 2.777777777777778e-05, "globe": "http://www.wikidata.org/entity/Q2"}}, "2": {"name": "University of St Andrews", "coordinates": {"latitude": 56.341214, "longitude": -2.793011, "altitude": null, "precision": 1e-05, "globe": "http://www.wikidata.org/entity/Q2"}}}, "residence": {"0": {"name": "Scotland", "coordinates": {"latitude": 57, "longitude": -5, "altitude": null, "precision": 1, "globe": "http://www.wikidata.org/entity/Q2"}}}, "edges": {"influencedBy": {"0": {"id": "Q184366", "name": "Thomas Henry Huxley"}}}}