{"id": "Q41257", "name": "Heinrich Hertz", "occupation": {"0": "physicist", "1": "philosopher", "2": "inventor", "3": "university teacher"}, "countryOfCitizenship": {"0": "Hamburg"}, "dateOfBirth": {"0": "+1857-02-22T00:00:00Z"}, "dateOfDeath": {"0": "+1894-01-01T00:00:00Z"}, "employer": {"0": {"name": "University of Bonn", "coordinates": {"latitude": 50.733888888889, "longitude": 7.1022222222222, "altitude": null, "precision": null, "globe": "http://www.wikidata.org/entity/Q2"}}, "1": {"name": "University of Kiel", "coordinates": {"latitude": 54.338888888889, "longitude": 10.1225, "altitude": null, "precision": null, "globe": "http://www.wikidata.org/entity/Q2"}}, "2": {"name": "Karlsruhe Institute of Technology", "coordinates": {"latitude": 49.0996, "longitude": 8.4319, "altitude": null, "precision": 0.0001, "globe": "http://www.wikidata.org/entity/Q2"}}}, "educatedAt": {"0": {"name": "Ludwig Maximilian University of Munich", "coordinates": {"latitude": 48.150833333333, "longitude": 11.580277777778, "altitude": null, "precision": 0.00027777777777778, "globe": "http://www.wikidata.org/entity/Q2"}}, "1": {"name": "Humboldt University of Berlin", "coordinates": {"latitude": 52.518055555556, "longitude": 13.393333333333, "altitude": null, "precision": null, "globe": "http://www.wikidata.org/entity/Q2"}}, "2": {"name": "Technical University of Munich", "coordinates": {"latitude": 48.148055555556, "longitude": 11.568055555556, "altitude": null, "precision": null, "globe": "http://www.wikidata.org/entity/Q2"}}, "3": {"name": "TU Dresden", "coordinates": ""}, "4": {"name": "Gelehrtenschule des Johanneums", "coordinates": {"latitude": 53.58972222, "longitude": 10.00638889, "altitude": null, "precision": 0.00027777777777778, "globe": "http://www.wikidata.org/entity/Q2"}}}, "fieldOfWork": {"0": "physics", "1": "electrical engineering", "2": "acoustics", "3": "electromagnetic wave"}, "image": {"0": "HEINRICH HERTZ.JPG"}, "doctralStudent": {"0": "Vilhelm Bjerknes", "1": "George Udny Yule", "2": "Josef Geitler von Armingen", "3": "George Udny Yule"}}