{"id": "Q43499", "name": "Erasmus", "image": {"0": "Holbein-erasmus.jpg"}, "occupation": {"0": "translator", "1": "philosopher", "2": "theologian", "3": "essayist", "4": "Bible translator", "5": "writer", "6": "Lady Margaret's Professor of Divinity", "7": "latinist", "8": "Latin Catholic priest", "9": "university teacher"}, "dateOfBirth": {"0": "+1466-10-28T00:00:00Z", "1": "+1466-11-06T00:00:00Z"}, "dateOfDeath": {"0": "+1536-07-12T00:00:00Z", "1": "+1536-00-00T00:00:00Z"}, "educatedAt": {"0": {"name": "University of Paris", "coordinates": {"latitude": 48.8486, "longitude": 2.34333, "altitude": null, "precision": 0.013651149849302, "globe": "http://www.wikidata.org/entity/Q2"}}, "1": {"name": "Queens' College", "coordinates": {"latitude": 52.202222222222, "longitude": 0.11472222222222, "altitude": null, "precision": null, "globe": "http://www.wikidata.org/entity/Q2"}}, "2": {"name": "University of Cambridge", "coordinates": {"latitude": 52.205355979757925, "longitude": 0.11315726963968827, "altitude": null, "precision": 1e-08, "globe": "http://www.wikidata.org/entity/Q2"}}, "3": {"name": "University of Turin", "coordinates": {"latitude": 45.069444444444, "longitude": 7.6888888888889, "altitude": null, "precision": 0.00027777777777778, "globe": "http://www.wikidata.org/entity/Q2"}}, "4": {"name": "Coll\u00e8ge de Montaigu", "coordinates": {"latitude": 48.8469, "longitude": 2.34639, "altitude": null, "precision": 0.013650686407501, "globe": "http://www.wikidata.org/entity/Q2"}}, "5": {"name": "City Gymnasium", "coordinates": {"latitude": 51.690733, "longitude": 5.2893, "altitude": null, "precision": 1e-06, "globe": "http://www.wikidata.org/entity/Q2"}}, "6": {"name": "College of Sorbonne", "coordinates": {"latitude": 48.8484, "longitude": 2.3433, "altitude": null, "precision": null, "globe": "http://www.wikidata.org/entity/Q2"}}}, "notableWork": {"0": "In Praise of Folly", "1": "A handbook on manners for children"}, "studentOf": {"0": "Alexander Hegius von Heek", "1": "John Colet", "2": "George Hermonymus"}, "countryOfCitizenship": {"0": "Seventeen Provinces"}, "fieldOfWork": {"0": "Christian philosophy", "1": "renaissance humanism"}, "influencedBy": {"0": "Epicureanism"}, "movement": {"0": "Renaissance philosophy"}, "employer": {"0": {"name": "Old University of Leuven", "coordinates": {"latitude": 50.877861111111, "longitude": 4.7006388888889, "altitude": null, "precision": 2.7777777777778e-05, "globe": "http://www.wikidata.org/entity/Q2"}}}, "doctralStudent": {"0": "Wolfgang Capito", "1": "Jacob Milich"}, "student": {"0": "Gabriel Mudaeus", "1": "Richard Croke", "2": "Nikolaus Bensrott"}, "timePeriod": {"0": "Renaissance"}}