{"id": "Q450821", "name": "Tanya Reinhart", "dateOfBirth": {"0": "+1943-01-01T00:00:00Z", "1": "+1943-07-23T00:00:00Z"}, "dateOfDeath": {"0": "+2007-03-17T00:00:00Z", "1": "+2007-01-01T00:00:00Z"}, "image": {"0": "Tanya reinhart.jpg"}, "occupation": {"0": "linguist", "1": "journalist", "2": "university teacher", "3": "peace activist"}, "countryOfCitizenship": {"0": "Israel"}, "educatedAt": {"0": {"name": "Hebrew University of Jerusalem", "coordinates": {"latitude": 31.775833333333, "longitude": 35.2, "altitude": null, "precision": 0.00027777777777778, "globe": "http://www.wikidata.org/entity/Q2"}}, "1": {"name": "Massachusetts Institute of Technology", "coordinates": {"latitude": 42.359722222222224, "longitude": -71.09194444444445, "altitude": null, "precision": 0.0002777777777777778, "globe": "http://www.wikidata.org/entity/Q2"}}}, "employer": {"0": {"name": "Tel Aviv University", "coordinates": {"latitude": 32.1125, "longitude": 34.805, "altitude": null, "precision": 0.0002777777777777778, "globe": "http://www.wikidata.org/entity/Q2"}}, "1": {"name": "Duke University", "coordinates": {"latitude": 36.001111111111, "longitude": -78.938888888889, "altitude": null, "precision": 0.00027777777777778, "globe": "http://www.wikidata.org/entity/Q2"}}, "2": {"name": "Utrecht University", "coordinates": {"latitude": 52.085277777777776, "longitude": 5.175, "altitude": null, "precision": 0.0002777777777777778, "globe": "http://www.wikidata.org/entity/Q2"}}, "3": {"name": "New York University", "coordinates": {"latitude": 40.73, "longitude": -73.995, "altitude": null, "precision": 0.00027777777777778, "globe": "http://www.wikidata.org/entity/Q2"}}}, "fieldOfWork": {"0": "linguistics", "1": "literary theory", "2": "mass media", "3": "propaganda"}, "doctralStudent": {"0": "Olga Borik"}}