{"id": "Q46998120", "name": "Juliette Roussin", "occupation": {"0": "philosopher", "1": "university teacher"}, "dateOfBirth": {"0": "+1984-00-00T00:00:00Z"}, "employer": {"0": {"name": "Laval University", "coordinates": {"latitude": 46.78, "longitude": -71.274722222222, "altitude": null, "precision": null, "globe": "http://www.wikidata.org/entity/Q2"}}, "1": {"name": "Coll\u00e8ge de France", "coordinates": {"latitude": 48.84917, "longitude": 2.34556, "altitude": null, "precision": 2.7777777777778e-05, "globe": "http://www.wikidata.org/entity/Q2"}}, "2": {"name": "University of Rennes 1", "coordinates": {"latitude": 48.1179, "longitude": -1.6379, "altitude": null, "precision": 0.0001, "globe": "http://www.wikidata.org/entity/Q2"}}, "3": {"name": "University of Paris 1 Pantheon-Sorbonne", "coordinates": {"latitude": 48.848333, "longitude": 2.343056, "altitude": null, "precision": 1e-06, "globe": "http://www.wikidata.org/entity/Q2"}}}, "educatedAt": {"0": {"name": "University of Paris 1 Pantheon-Sorbonne", "coordinates": {"latitude": 48.848333, "longitude": 2.343056, "altitude": null, "precision": 1e-06, "globe": "http://www.wikidata.org/entity/Q2"}}, "1": {"name": "\u00c9cole Normale Sup\u00e9rieure de Lyon", "coordinates": {"latitude": 45.729734, "longitude": 4.826875, "altitude": null, "precision": 1e-06, "globe": "http://www.wikidata.org/entity/Q2"}}, "2": {"name": "Jean Moulin University - Lyon 3", "coordinates": ""}}, "countryOfCitizenship": {"0": "France"}}