{"id": "Q4798197", "name": "Arthur Caplan", "occupation": {"0": "scientist", "1": "bioethicist"}, "employer": {"0": {"name": "NYU Langone Medical Center", "coordinates": {"latitude": 40.741969, "longitude": -73.974033, "altitude": null, "precision": 0.0001, "globe": "http://www.wikidata.org/entity/Q2"}}, "1": {"name": "New York University", "coordinates": {"latitude": 40.73, "longitude": -73.995, "altitude": null, "precision": 0.00027777777777778, "globe": "http://www.wikidata.org/entity/Q2"}}, "2": {"name": "University of Minnesota", "coordinates": {"latitude": 44.975, "longitude": -93.23527777777778, "altitude": null, "precision": 0.0002777777777777778, "globe": "http://www.wikidata.org/entity/Q2"}}, "3": {"name": "Columbia University", "coordinates": {"latitude": 40.8075, "longitude": -73.961944444444, "altitude": null, "precision": 0.00027777777777778, "globe": "http://www.wikidata.org/entity/Q2"}}, "4": {"name": "University of Pittsburgh", "coordinates": {"latitude": 40.444565, "longitude": -79.953274, "altitude": null, "precision": 0.00027777777777778, "globe": "http://www.wikidata.org/entity/Q2"}}, "5": {"name": "University of Pennsylvania", "coordinates": {"latitude": 39.95388888888889, "longitude": -75.19305555555556, "altitude": null, "precision": 0.000277778, "globe": "http://www.wikidata.org/entity/Q2"}}, "6": {"name": "New York University School of Medicine", "coordinates": {"latitude": 40.7421, "longitude": -73.9744, "altitude": null, "precision": 0.0001, "globe": "http://www.wikidata.org/entity/Q2"}}, "7": {"name": "NYU Langone Medical Center", "coordinates": {"latitude": 40.741969, "longitude": -73.974033, "altitude": null, "precision": 0.0001, "globe": "http://www.wikidata.org/entity/Q2"}}}, "educatedAt": {"0": {"name": "Columbia University", "coordinates": {"latitude": 40.8075, "longitude": -73.961944444444, "altitude": null, "precision": 0.00027777777777778, "globe": "http://www.wikidata.org/entity/Q2"}}, "1": {"name": "Columbia University", "coordinates": {"latitude": 40.8075, "longitude": -73.961944444444, "altitude": null, "precision": 0.00027777777777778, "globe": "http://www.wikidata.org/entity/Q2"}}, "2": {"name": "Brandeis University", "coordinates": {"latitude": 42.36566, "longitude": -71.25974, "altitude": null, "precision": 1e-06, "globe": "http://www.wikidata.org/entity/Q2"}}}, "fieldOfWork": {"0": "bioethics"}, "image": {"0": "Arthur Caplan (2667975697).jpg"}, "dateOfBirth": {"0": "+1950-00-00T00:00:00Z", "1": "+1950-03-31T00:00:00Z"}, "countryOfCitizenship": {"0": "United States of America"}}