{"id": "Q530983", "name": "Bernard Lonergan", "countryOfCitizenship": {"0": "Canada"}, "dateOfBirth": {"0": "+1904-12-17T00:00:00Z"}, "dateOfDeath": {"0": "+1984-11-26T00:00:00Z"}, "educatedAt": {"0": {"name": "Pontifical Gregorian University", "coordinates": {"latitude": 41.898888888889, "longitude": 12.484722222222, "altitude": null, "precision": null, "globe": "http://www.wikidata.org/entity/Q2"}}, "1": {"name": "Heythrop College, University of London", "coordinates": {"latitude": 51.4992, "longitude": -0.1903, "altitude": null, "precision": 1e-06, "globe": "http://www.wikidata.org/entity/Q2"}}, "2": {"name": "Loyola College", "coordinates": {"latitude": 45.458, "longitude": -73.639, "altitude": null, "precision": 2.777777777778e-05, "globe": "http://www.wikidata.org/entity/Q2"}}}, "employer": {"0": {"name": "Harvard University", "coordinates": {"latitude": 42.374443888889, "longitude": -71.116943888889, "altitude": null, "precision": 2.77778e-06, "globe": "http://www.wikidata.org/entity/Q2"}}, "1": {"name": "University of Toronto", "coordinates": {"latitude": 43.662917, "longitude": -79.395746, "altitude": null, "precision": 1e-06, "globe": "http://www.wikidata.org/entity/Q2"}}, "2": {"name": "Concordia University", "coordinates": {"latitude": 45.496944444444445, "longitude": -73.57805555555555, "altitude": null, "precision": 0.0002777777777777778, "globe": "http://www.wikidata.org/entity/Q2"}}, "3": {"name": "Pontifical Gregorian University", "coordinates": {"latitude": 41.898888888889, "longitude": 12.484722222222, "altitude": null, "precision": null, "globe": "http://www.wikidata.org/entity/Q2"}}}, "occupation": {"0": "theologian", "1": "philosopher", "2": "university teacher"}, "image": {"0": "Bernard Lonergan SJ.jpg"}}