{"id": "Q57193", "name": "Moritz Schlick", "countryOfCitizenship": {"0": "Germany"}, "dateOfDeath": {"0": "+1936-06-22T00:00:00Z"}, "dateOfBirth": {"0": "+1882-04-14T00:00:00Z"}, "image": {"0": "Schlick sitting.jpg"}, "occupation": {"0": "physicist", "1": "philosopher", "2": "university teacher", "3": "philosopher of science"}, "employer": {"0": {"name": "University of Vienna", "coordinates": {"latitude": 48.213055555556, "longitude": 16.359722222222, "altitude": null, "precision": null, "globe": "http://www.wikidata.org/entity/Q2"}}, "1": {"name": "University of Kiel", "coordinates": {"latitude": 54.338888888889, "longitude": 10.1225, "altitude": null, "precision": null, "globe": "http://www.wikidata.org/entity/Q2"}}, "2": {"name": "University of Rostock", "coordinates": {"latitude": 54.08813333333333, "longitude": 12.133372222222222, "altitude": null, "precision": 2.777777777777778e-06, "globe": "http://www.wikidata.org/entity/Q2"}}}, "educatedAt": {"0": {"name": "University of Lausanne", "coordinates": {"latitude": 46.5225, "longitude": 6.5794444444444, "altitude": null, "precision": 0.00027777777777778, "globe": "http://www.wikidata.org/entity/Q2"}}, "1": {"name": "Heidelberg University", "coordinates": {"latitude": 49.410277777778, "longitude": 8.7063888888889, "altitude": null, "precision": 0.000277778, "globe": "http://www.wikidata.org/entity/Q2"}}, "2": {"name": "Humboldt University of Berlin", "coordinates": {"latitude": 52.518055555556, "longitude": 13.393333333333, "altitude": null, "precision": null, "globe": "http://www.wikidata.org/entity/Q2"}}}, "fieldOfWork": {"0": "philosophy"}}