{"id": "Q57196", "name": "Franz Brentano", "countryOfCitizenship": {"0": "Kingdom of Prussia"}, "dateOfBirth": {"0": "+1838-01-16T00:00:00Z", "1": "+1838-01-01T00:00:00Z"}, "dateOfDeath": {"0": "+1917-03-17T00:00:00Z", "1": "+1917-01-01T00:00:00Z"}, "image": {"0": "Franz Brentano portrait.jpg", "1": "Franz Brentano.jpeg"}, "occupation": {"0": "philosopher", "1": "psychologist", "2": "university teacher"}, "employer": {"0": {"name": "University of Vienna", "coordinates": {"latitude": 48.213055555556, "longitude": 16.359722222222, "altitude": null, "precision": null, "globe": "http://www.wikidata.org/entity/Q2"}}, "1": {"name": "University of W\u00fcrzburg", "coordinates": {"latitude": 49.788055555556, "longitude": 9.9352777777778, "altitude": null, "precision": null, "globe": "http://www.wikidata.org/entity/Q2"}}}, "educatedAt": {"0": {"name": "Ludwig Maximilian University of Munich", "coordinates": {"latitude": 48.150833333333, "longitude": 11.580277777778, "altitude": null, "precision": 0.00027777777777778, "globe": "http://www.wikidata.org/entity/Q2"}}, "1": {"name": "University of W\u00fcrzburg", "coordinates": {"latitude": 49.788055555556, "longitude": 9.9352777777778, "altitude": null, "precision": null, "globe": "http://www.wikidata.org/entity/Q2"}}, "2": {"name": "University of T\u00fcbingen", "coordinates": {"latitude": 48.525, "longitude": 9.059, "altitude": null, "precision": null, "globe": "http://www.wikidata.org/entity/Q2"}}, "3": {"name": "Humboldt University of Berlin", "coordinates": {"latitude": 52.518055555556, "longitude": 13.393333333333, "altitude": null, "precision": null, "globe": "http://www.wikidata.org/entity/Q2"}}, "4": {"name": "University of M\u00fcnster", "coordinates": {"latitude": 51.964, "longitude": 7.613, "altitude": null, "precision": null, "globe": "http://www.wikidata.org/entity/Q2"}}}, "fieldOfWork": {"0": "philosophy"}, "notableWork": {"0": "Psychology from an Empirical Standpoint"}}