{"id": "Q57314", "name": "Robert Michels", "countryOfCitizenship": {"0": "Germany", "1": "Kingdom of Italy"}, "dateOfBirth": {"0": "+1876-01-09T00:00:00Z"}, "dateOfDeath": {"0": "+1936-05-02T00:00:00Z"}, "occupation": {"0": "sociologist", "1": "university teacher", "2": "philosopher"}, "employer": {"0": {"name": "University of Basel", "coordinates": {"latitude": 47.55852, "longitude": 7.58346, "altitude": null, "precision": 1e-05, "globe": "http://www.wikidata.org/entity/Q2"}}, "1": {"name": "University of Marburg", "coordinates": {"latitude": 50.810833333333, "longitude": 8.7736111111111, "altitude": null, "precision": null, "globe": "http://www.wikidata.org/entity/Q2"}}, "2": {"name": "University of Turin", "coordinates": {"latitude": 45.069444444444, "longitude": 7.6888888888889, "altitude": null, "precision": 0.00027777777777778, "globe": "http://www.wikidata.org/entity/Q2"}}, "3": {"name": "University of Perugia", "coordinates": {"latitude": 43.1158, "longitude": 12.3858, "altitude": null, "precision": 2.77777777778e-06, "globe": "http://www.wikidata.org/entity/Q2"}}}, "image": {"0": "Robert-michels.jpg"}, "educatedAt": {"0": {"name": "Ludwig Maximilian University of Munich", "coordinates": {"latitude": 48.150833333333, "longitude": 11.580277777778, "altitude": null, "precision": 0.00027777777777778, "globe": "http://www.wikidata.org/entity/Q2"}}, "1": {"name": "Leipzig University", "coordinates": {"latitude": 51.3387, "longitude": 12.378727777777778, "altitude": null, "precision": 2.777777777777778e-06, "globe": "http://www.wikidata.org/entity/Q2"}}, "2": {"name": "University of Halle-Wittenberg", "coordinates": {"latitude": 51.48638889, "longitude": 11.96888889, "altitude": null, "precision": 0.00027777777777778, "globe": "http://www.wikidata.org/entity/Q2"}}}, "edges": {"influenced": {"0": {"id": "Q21062238", "name": "Curtis Yarvin"}, "1": {"id": "Q1240178", "name": "James Burnham"}}}}