{"id": "Q58365985", "name": "Stephen M. Downes", "employer": {"0": {"name": "University of Utah", "coordinates": {"latitude": 40.765, "longitude": -111.85, "altitude": null, "precision": 0.00027777777777778, "globe": "http://www.wikidata.org/entity/Q2"}}}, "occupation": {"0": "researcher"}, "countryOfCitizenship": {"0": "United Kingdom"}, "residence": {"0": {"name": "United States of America", "coordinates": {"latitude": 39.828175, "longitude": -98.5795, "altitude": null, "precision": 1e-06, "globe": "http://www.wikidata.org/entity/Q2"}}}, "fieldOfWork": {"0": "philosophy of science", "1": "philosophy of mind"}, "educatedAt": {"0": {"name": "Virginia Tech", "coordinates": {"latitude": 37.225, "longitude": -80.425, "altitude": null, "precision": 0.00027777777777778, "globe": "http://www.wikidata.org/entity/Q2"}}, "1": {"name": "University of Warwick", "coordinates": {"latitude": 52.380080555556, "longitude": -1.5619305555556, "altitude": null, "precision": null, "globe": "http://www.wikidata.org/entity/Q2"}}, "2": {"name": "University of Manchester", "coordinates": {"latitude": 53.465555555556, "longitude": -2.2336111111111, "altitude": null, "precision": null, "globe": "http://www.wikidata.org/entity/Q2"}}}, "edges": {"student": {"0": {"id": "Q65485718", "name": "Jason Christopher Jenson"}, "1": {"id": "Q73008670", "name": "Monika W. Piotrowska"}}, "studentOf": {"0": {"id": "Q2346981", "name": "Steve Fuller"}}}}