{"id": "Q61190", "name": "Oswald K\u00fclpe", "doctralStudent": {"0": "Isidor B\u00f6ck", "1": "Alfons Scheuble", "2": "Hermann Ritzel", "3": "Johannes Lindworsky", "4": "Johannes Habrich", "5": "Helene Alexander Nanu", "6": "Henry J. Watt", "7": "Abraham Anton Gr\u00fcnbaum"}, "countryOfCitizenship": {"0": "German Empire"}, "dateOfBirth": {"0": "+1862-08-03T00:00:00Z"}, "dateOfDeath": {"0": "+1915-12-30T00:00:00Z"}, "employer": {"0": {"name": "Ludwig Maximilian University of Munich", "coordinates": {"latitude": 48.150833333333, "longitude": 11.580277777778, "altitude": null, "precision": 0.00027777777777778, "globe": "http://www.wikidata.org/entity/Q2"}}, "1": {"name": "University of Bonn", "coordinates": {"latitude": 50.733888888889, "longitude": 7.1022222222222, "altitude": null, "precision": null, "globe": "http://www.wikidata.org/entity/Q2"}}, "2": {"name": "University of W\u00fcrzburg", "coordinates": {"latitude": 49.788055555556, "longitude": 9.9352777777778, "altitude": null, "precision": null, "globe": "http://www.wikidata.org/entity/Q2"}}}, "occupation": {"0": "psychologist", "1": "philosopher", "2": "university teacher", "3": "author", "4": "economist"}, "educatedAt": {"0": {"name": "Leipzig University", "coordinates": {"latitude": 51.3387, "longitude": 12.378727777777778, "altitude": null, "precision": 2.777777777777778e-06, "globe": "http://www.wikidata.org/entity/Q2"}}, "1": {"name": "Liep\u0101ja Gymnasium", "coordinates": {"latitude": 56.5085843, "longitude": 21.0068786, "altitude": null, "precision": 0.00027777777777778, "globe": "http://www.wikidata.org/entity/Q2"}}}}