{"id": "Q6243948", "name": "John Lane Bell", "occupation": {"0": "mathematician", "1": "philosopher", "2": "university teacher"}, "educatedAt": {"0": {"name": "University of Oxford", "coordinates": {"latitude": 51.755, "longitude": -1.255, "altitude": null, "precision": 0.0002777777777777778, "globe": "http://www.wikidata.org/entity/Q2"}}, "1": {"name": "Lick-Wilmerding High School", "coordinates": {"latitude": 37.7222, "longitude": -122.449, "altitude": null, "precision": 0.0001, "globe": "http://www.wikidata.org/entity/Q2"}}}, "fieldOfWork": {"0": "model theory", "1": "set theory", "2": "mathematics", "3": "mathematical logic", "4": "constructivism", "5": "philosophy of mathematics", "6": "quantum logic", "7": "modal logic", "8": "philosophy"}, "dateOfBirth": {"0": "+1945-03-25T00:00:00Z"}, "employer": {"0": {"name": "Western University", "coordinates": {"latitude": 43.009643504913065, "longitude": -81.27377651628304, "altitude": null, "precision": 1e-08, "globe": "http://www.wikidata.org/entity/Q2"}}, "1": {"name": "London School of Economics and Political Science", "coordinates": {"latitude": 51.513888888889, "longitude": -0.11666666666667, "altitude": null, "precision": null, "globe": "http://www.wikidata.org/entity/Q2"}}, "2": {"name": "National University of Singapore", "coordinates": {"latitude": 1.2955555555556, "longitude": 103.77666666667, "altitude": null, "precision": null, "globe": "http://www.wikidata.org/entity/Q2"}}}, "countryOfCitizenship": {"0": "Canada"}, "doctralStudent": {"0": "Elaine Landry", "1": "Michael Hallett", "2": "Samuel Fendrich", "3": "Dennis Mentzeniotis", "4": "Enrique Hernandez", "5": "Gregory Ralph Hagen", "6": "John Lake", "7": "David DeVidi", "8": "Richard Feist", "9": "Eric Snyder"}, "edges": {"student": {"0": {"id": "Q1541962", "name": "Graham Priest"}}}}