{"id": "Q63309901", "name": "Charles Ramond", "dateOfBirth": {"0": "+1957-08-24T00:00:00Z"}, "countryOfCitizenship": {"0": "France"}, "occupation": {"0": "philosopher", "1": "university teacher"}, "educatedAt": {"0": {"name": "Paris-Sorbonne University - Paris IV", "coordinates": {"latitude": 48.848333333333, "longitude": 2.3427777777778, "altitude": null, "precision": 0.00027777777777778, "globe": "http://www.wikidata.org/entity/Q2"}}, "1": {"name": "Lyc\u00e9e Montaigne", "coordinates": {"latitude": 48.84388889, "longitude": 2.33472222, "altitude": null, "precision": 0.00027777777777778, "globe": "http://www.wikidata.org/entity/Q2"}}, "2": {"name": "Lyc\u00e9e Louis-le-Grand", "coordinates": {"latitude": 48.848056, "longitude": 2.344528, "altitude": null, "precision": 2.7777777777778e-05, "globe": "http://www.wikidata.org/entity/Q2"}}}, "employer": {"0": {"name": "Bordeaux Montaigne University", "coordinates": {"latitude": 44.79529, "longitude": -0.616361, "altitude": null, "precision": 2.77777777778e-06, "globe": "http://www.wikidata.org/entity/Q2"}}, "1": {"name": "Paris 8 University", "coordinates": {"latitude": 48.944722222222, "longitude": 2.3633333333333, "altitude": null, "precision": 0.00027777777777778, "globe": "http://www.wikidata.org/entity/Q2"}}}}