{"id": "Q679718", "name": "Michael L\u00f6wy", "educatedAt": {"0": {"name": "School for Advanced Studies in the Social Sciences", "coordinates": {"latitude": 48.83607, "longitude": 2.37205, "altitude": null, "precision": 1e-06, "globe": "http://www.wikidata.org/entity/Q2"}}, "1": {"name": "Paris Descartes University", "coordinates": ""}, "2": {"name": "University of S\u00e3o Paulo", "coordinates": {"latitude": -23.5613991, "longitude": -46.7307891, "altitude": null, "precision": 1e-07, "globe": "http://www.wikidata.org/entity/Q2"}}}, "image": {"0": "Michael L\u00f6wy.jpg"}, "dateOfBirth": {"0": "+1938-05-06T00:00:00Z"}, "countryOfCitizenship": {"0": "France", "1": "Brazil"}, "occupation": {"0": "sociologist", "1": "philosopher", "2": "university teacher", "3": "research fellow", "4": "researcher"}, "employer": {"0": {"name": "University of Kassel", "coordinates": {"latitude": 51.322775, "longitude": 9.50756111111111, "altitude": null, "precision": 2.777777777777778e-06, "globe": "http://www.wikidata.org/entity/Q2"}}, "1": {"name": "School for Advanced Studies in the Social Sciences", "coordinates": {"latitude": 48.83607, "longitude": 2.37205, "altitude": null, "precision": 1e-06, "globe": "http://www.wikidata.org/entity/Q2"}}, "2": {"name": "Paris 8 University", "coordinates": {"latitude": 48.944722222222, "longitude": 2.3633333333333, "altitude": null, "precision": 0.00027777777777778, "globe": "http://www.wikidata.org/entity/Q2"}}, "3": {"name": "National Center for Scientific Research", "coordinates": {"latitude": 48.8477, "longitude": 2.264, "altitude": null, "precision": 2.77777777778e-06, "globe": "http://www.wikidata.org/entity/Q2"}}, "4": {"name": "Tel Aviv University", "coordinates": {"latitude": 32.1125, "longitude": 34.805, "altitude": null, "precision": 0.0002777777777777778, "globe": "http://www.wikidata.org/entity/Q2"}}}, "doctralStudent": {"0": "Enzo Traverso", "1": "Juan Agull\u00f3"}, "notableWork": {"0": "Franz Kafka: Subversive Dreamer", "1": "Redemption and Utopia: Jewish Libertarian Thought in Central Europe: A Study in Elective Affinity", "2": "Revolutionary Affinities: Towards a Marxist Anarchist Solidarity"}, "edges": {"studentOf": {"0": {"id": "Q513448", "name": "Lucien Goldmann"}}, "influenced": {"0": {"id": "Q111975875", "name": "Pierre Mouterde"}}}}