{"id": "Q76327", "name": "Rudolf Bultmann", "countryOfCitizenship": {"0": "Germany"}, "dateOfBirth": {"0": "+1884-08-20T00:00:00Z"}, "dateOfDeath": {"0": "+1976-07-30T00:00:00Z"}, "educatedAt": {"0": {"name": "University of T\u00fcbingen", "coordinates": {"latitude": 48.525, "longitude": 9.059, "altitude": null, "precision": null, "globe": "http://www.wikidata.org/entity/Q2"}}, "1": {"name": "University of Marburg", "coordinates": {"latitude": 50.810833333333, "longitude": 8.7736111111111, "altitude": null, "precision": null, "globe": "http://www.wikidata.org/entity/Q2"}}, "2": {"name": "Humboldt University of Berlin", "coordinates": {"latitude": 52.518055555556, "longitude": 13.393333333333, "altitude": null, "precision": null, "globe": "http://www.wikidata.org/entity/Q2"}}}, "occupation": {"0": "theologian", "1": "university teacher", "2": "philosopher"}, "employer": {"0": {"name": "University of Marburg", "coordinates": {"latitude": 50.810833333333, "longitude": 8.7736111111111, "altitude": null, "precision": null, "globe": "http://www.wikidata.org/entity/Q2"}}, "1": {"name": "University of Giessen", "coordinates": {"latitude": 50.580833333333, "longitude": 8.6763888888889, "altitude": null, "precision": 0.00027777777777778, "globe": "http://www.wikidata.org/entity/Q2"}}, "2": {"name": "University of Wroc\u0142aw", "coordinates": {"latitude": 51.113611111111, "longitude": 17.033333333333, "altitude": null, "precision": null, "globe": "http://www.wikidata.org/entity/Q2"}}}, "image": {"0": "Bultmann.JPG"}, "notableWork": {"0": "The New Testament and Mythology"}, "student": {"0": "Ernst K\u00e4semann", "1": "Gerhard Ebeling", "2": "Hans Conzelmann", "3": "Ernst Fuchs"}, "edges": {"influenced": {"0": {"id": "Q57255", "name": "Hans Jonas"}}}}