{"id": "Q828641", "name": "Bertrand de Jouvenel", "occupation": {"0": "writer", "1": "journalist", "2": "economist", "3": "philosopher", "4": "university teacher", "5": "political scientist", "6": "jurist"}, "countryOfCitizenship": {"0": "France"}, "dateOfBirth": {"0": "+1903-10-31T00:00:00Z"}, "dateOfDeath": {"0": "+1987-03-01T00:00:00Z", "1": "+1987-03-02T00:00:00Z"}, "employer": {"0": {"name": "Yale University", "coordinates": {"latitude": 41.311111111111, "longitude": -72.926666666667, "altitude": null, "precision": null, "globe": "http://www.wikidata.org/entity/Q2"}}, "1": {"name": "University of California, Berkeley", "coordinates": {"latitude": 37.87, "longitude": -122.259, "altitude": null, "precision": 0.00027777777777778, "globe": "http://www.wikidata.org/entity/Q2"}}, "2": {"name": "University of Manchester", "coordinates": {"latitude": 53.465555555556, "longitude": -2.2336111111111, "altitude": null, "precision": null, "globe": "http://www.wikidata.org/entity/Q2"}}, "3": {"name": "University of Oxford", "coordinates": {"latitude": 51.755, "longitude": -1.255, "altitude": null, "precision": 0.0002777777777777778, "globe": "http://www.wikidata.org/entity/Q2"}}, "4": {"name": "University of Chicago", "coordinates": {"latitude": 41.789722222222, "longitude": -87.599722222222, "altitude": null, "precision": 0.00027777777777778, "globe": "http://www.wikidata.org/entity/Q2"}}}, "fieldOfWork": {"0": "literary activity", "1": "journalism", "2": "law", "3": "political science", "4": "economics"}}