{"id": "Q84423", "name": "Martin Buber", "image": {"0": "Martin Buber portrait.jpg"}, "occupation": {"0": "philosopher", "1": "existentialist", "2": "translator", "3": "pedagogue", "4": "writer", "5": "literary editor", "6": "university teacher", "7": "Bible translator", "8": "educator", "9": "zionist"}, "countryOfCitizenship": {"0": "Austria-Hungary", "1": "Weimar Republic", "2": "Israel"}, "dateOfDeath": {"0": "+1965-06-13T00:00:00Z"}, "dateOfBirth": {"0": "+1878-02-08T00:00:00Z"}, "employer": {"0": {"name": "Goethe University Frankfurt", "coordinates": {"latitude": 50.12791, "longitude": 8.66944, "altitude": null, "precision": 1e-05, "globe": "http://www.wikidata.org/entity/Q2"}}, "1": {"name": "Hebrew University of Jerusalem", "coordinates": {"latitude": 31.775833333333, "longitude": 35.2, "altitude": null, "precision": 0.00027777777777778, "globe": "http://www.wikidata.org/entity/Q2"}}, "2": {"name": "Die Welt", "coordinates": ""}}, "educatedAt": {"0": {"name": "University of Vienna", "coordinates": {"latitude": 48.213055555556, "longitude": 16.359722222222, "altitude": null, "precision": null, "globe": "http://www.wikidata.org/entity/Q2"}}, "1": {"name": "Humboldt University of Berlin", "coordinates": {"latitude": 52.518055555556, "longitude": 13.393333333333, "altitude": null, "precision": null, "globe": "http://www.wikidata.org/entity/Q2"}}, "2": {"name": "University of Zurich", "coordinates": {"latitude": 47.374722222222, "longitude": 8.5483333333333, "altitude": null, "precision": null, "globe": "http://www.wikidata.org/entity/Q2"}}, "3": {"name": "Leipzig University", "coordinates": {"latitude": 51.3387, "longitude": 12.378727777777778, "altitude": null, "precision": 2.777777777777778e-06, "globe": "http://www.wikidata.org/entity/Q2"}}}, "notableWork": {"0": "I and Thou", "1": "Die Schrift", "2": "A Land of Two Peoples"}, "influencedBy": {"0": "Salomon Buber", "1": "Baal Shem Tov"}, "movement": {"0": "Western philosophy"}, "timePeriod": {"0": "contemporary philosophy"}, "fieldOfWork": {"0": "ontology", "1": "Judaism", "2": "philosophy", "3": "literature", "4": "translation", "5": "educational system"}}