{"id": "Q9061", "name": "Karl Marx", "occupation": {"0": "economist", "1": "journalist", "2": "historian", "3": "philosopher", "4": "sociologist", "5": "revolutionary", "6": "poet", "7": "politician", "8": "writer"}, "dateOfBirth": {"0": "+1818-05-05T00:00:00Z"}, "dateOfDeath": {"0": "+1883-03-14T00:00:00Z"}, "image": {"0": "Karl Marx 001.jpg"}, "notableWork": {"0": "Economic and Philosophic Manuscripts of 1844", "1": "Das Kapital", "2": "The German Ideology", "3": "The Communist Manifesto"}, "educatedAt": {"0": {"name": "University of Bonn", "coordinates": {"latitude": 50.733888888889, "longitude": 7.1022222222222, "altitude": null, "precision": null, "globe": "http://www.wikidata.org/entity/Q2"}}, "1": {"name": "University of Jena", "coordinates": {"latitude": 50.928333333333, "longitude": 11.582222222222, "altitude": null, "precision": null, "globe": "http://www.wikidata.org/entity/Q2"}}, "2": {"name": "Humboldt University of Berlin", "coordinates": {"latitude": 52.518055555556, "longitude": 13.393333333333, "altitude": null, "precision": null, "globe": "http://www.wikidata.org/entity/Q2"}}, "3": {"name": "Gimnasium Real Frederick William III", "coordinates": {"latitude": 49.7477, "longitude": 6.64408, "altitude": null, "precision": 0.0001, "globe": "http://www.wikidata.org/entity/Q2"}}}, "influencedBy": {"0": "The Essence of Christianity"}, "countryOfCitizenship": {"0": "Kingdom of Prussia", "1": "statelessness"}, "fieldOfWork": {"0": "political economy", "1": "sociology", "2": "philosophy"}, "employer": {"0": {"name": "Neue Rheinische Zeitung", "coordinates": ""}, "1": {"name": "Rheinische Zeitung", "coordinates": ""}}, "residence": {"0": {"name": "London", "coordinates": {"latitude": 51.507222222222, "longitude": -0.1275, "altitude": null, "precision": 0.00027777777777778, "globe": "http://www.wikidata.org/entity/Q2"}}, "1": {"name": "Trier", "coordinates": {"latitude": 49.75565, "longitude": 6.63935, "altitude": null, "precision": 0.13904760827128, "globe": "http://www.wikidata.org/entity/Q2"}}, "2": {"name": "Berlin", "coordinates": {"latitude": 52.516666666667, "longitude": 13.383333333333, "altitude": null, "precision": 0.016666666666667, "globe": "http://www.wikidata.org/entity/Q2"}}, "3": {"name": "Paris", "coordinates": {"latitude": 48.85666666666667, "longitude": 2.352222222222222, "altitude": null, "precision": 0.0002777777777777778, "globe": "http://www.wikidata.org/entity/Q2"}}, "4": {"name": "Maison du Cygne - De Zwane", "coordinates": {"latitude": 50.8462, "longitude": 4.35255, "altitude": null, "precision": 0.01, "globe": "http://www.wikidata.org/entity/Q2"}}}, "studentOf": {"0": "Friedrich Gottlieb Welcker"}}