{"id": "Q9381", "name": "Adam Smith", "desc": "Scottish moral philosopher and political economist (1723-1790)", "wiki_link": "https://en.wikipedia.org/wiki/Adam_Smith", "placeOfBirth": {"0": {"id": "Q691685", "name": "Kirkcaldy", "coordinates": {"latitude": 56.110730555556, "longitude": -3.1673694444444, "altitude": null, "precision": 0.00027777777777778, "globe": "http://www.wikidata.org/entity/Q2"}}}, "occupation": {"0": {"id": "Q188094", "name": "economist"}, "1": {"id": "Q15980158", "name": "non-fiction writer"}, "2": {"id": "Q4964182", "name": "philosopher"}, "3": {"id": "Q36180", "name": "writer"}, "4": {"id": "Q1622272", "name": "university teacher"}, "5": {"id": "Q1297719", "name": "French moralist"}, "6": {"id": "Q2516866", "name": "publisher"}}, "image": {"0": "AdamSmith.jpg"}, "placeOfDeath": {"0": {"id": "Q23436", "name": "Edinburgh", "coordinates": {"latitude": 55.95333333333333, "longitude": -3.1891666666666665, "altitude": null, "precision": 0.0002777777777777778, "globe": "http://www.wikidata.org/entity/Q2"}}}, "countryOfCitizenship": {"0": {"id": "Q161885", "name": "Kingdom of Great Britain", "coordinates": {"latitude": 51.5, "longitude": -0.13333333, "altitude": null, "precision": 0.016666666666667, "globe": "http://www.wikidata.org/entity/Q2"}}}, "dateOfDeath": {"0": "+1790-07-17T00:00:00Z"}, "dateOfBirth": {"0": "+1723-06-05T00:00:00Z", "1": "+1723-06-05T00:00:00Z", "2": "+1723-06-16T00:00:00Z"}, "educatedAt": {"0": {"id": "Q192775", "name": "University of Glasgow", "coordinates": {"latitude": 55.871944444444, "longitude": -4.2875, "altitude": null, "precision": 0.00027777777777778, "globe": "http://www.wikidata.org/entity/Q2"}}, "1": {"id": "Q805285", "name": "Balliol College", "coordinates": {"latitude": 51.7547, "longitude": -1.2578, "altitude": null, "precision": 0.0001, "globe": "http://www.wikidata.org/entity/Q2"}}, "2": {"id": "Q6415615", "name": "Kirkcaldy High School", "coordinates": {"latitude": 56.1315, "longitude": -3.1675, "altitude": null, "precision": 0.0001, "globe": "http://www.wikidata.org/entity/Q2"}}}, "notableWork": {"0": {"id": "Q1438448", "name": "The Theory of Moral Sentiments"}, "1": {"id": "Q233562", "name": "The Wealth of Nations"}}, "employer": {"0": {"id": "Q160302", "name": "University of Edinburgh", "coordinates": {"latitude": 55.94738888888889, "longitude": -3.1871944444444447, "altitude": null, "precision": 2.777777777777778e-05, "globe": "http://www.wikidata.org/entity/Q2"}}, "1": {"id": "Q192775", "name": "University of Glasgow", "coordinates": {"latitude": 55.871944444444, "longitude": -4.2875, "altitude": null, "precision": 0.00027777777777778, "globe": "http://www.wikidata.org/entity/Q2"}}}, "fieldOfWork": {"0": {"id": "Q8134", "name": "economics"}, "1": {"id": "Q9465", "name": "ethics"}, "2": {"id": "Q179805", "name": "political philosophy"}, "3": {"id": "Q1401304", "name": "economic theory"}, "4": {"id": "Q729119", "name": "economic liberalism"}, "5": {"id": "Q5891", "name": "philosophy"}, "6": {"id": "Q12539", "name": "Age of Enlightenment"}}, "influencedBy": {"0": {"id": "Q13575", "name": "Fran\u00e7ois Quesnay"}}, "edges": {"influenced": {"0": {"id": "Q168004", "name": "Friedrich Heinrich Jacobi", "similarity": 0.24459531903266907}, "1": {"id": "Q34787", "name": "Friedrich Engels", "similarity": 0.2667655348777771}}}, "priority": 0.6565420560747663}