{"id": "Q93996", "name": "Ernst Mach", "occupation": {"0": "physicist", "1": "philosopher", "2": "pedagogue", "3": "professor", "4": "photographer", "5": "politician"}, "countryOfCitizenship": {"0": "Austria-Hungary"}, "dateOfDeath": {"0": "+1916-02-19T00:00:00Z"}, "dateOfBirth": {"0": "+1838-02-18T00:00:00Z"}, "image": {"0": "Ernstmach.jpg", "1": "Ernst-Mach-1900.jpg"}, "employer": {"0": {"name": "University of Vienna", "coordinates": {"latitude": 48.213055555556, "longitude": 16.359722222222, "altitude": null, "precision": null, "globe": "http://www.wikidata.org/entity/Q2"}}, "1": {"name": "University of Graz", "coordinates": {"latitude": 47.07761, "longitude": 15.44956, "altitude": null, "precision": 1e-05, "globe": "http://www.wikidata.org/entity/Q2"}}, "2": {"name": "Charles University", "coordinates": {"latitude": 50.0884, "longitude": 14.4037, "altitude": null, "precision": 0.014001065638779498, "globe": "http://www.wikidata.org/entity/Q2"}}}, "doctralStudent": {"0": "Stanislaus von Prowazek", "1": "Ottokar Tumlirz", "2": "Franti\u0161ek Kol\u00e1\u010dek"}, "fieldOfWork": {"0": "physics", "1": "philosophy of science"}, "influencedBy": {"0": "Andreas von Ettingshausen"}, "movement": {"0": "Western philosophy"}, "educatedAt": {"0": {"name": "convent Gymnasium in Seitenstetten", "coordinates": {"latitude": 48.0333, "longitude": 14.65, "altitude": null, "precision": 0.0001, "globe": "http://www.wikidata.org/entity/Q2"}}, "1": {"name": "Piaristick\u00e9 gymn\u00e1zium v Krom\u011b\u0159\u00ed\u017ei", "coordinates": {"latitude": 49.2979453, "longitude": 17.3912256, "altitude": null, "precision": 1e-06, "globe": "http://www.wikidata.org/entity/Q2"}}, "2": {"name": "University of Vienna", "coordinates": {"latitude": 48.213055555556, "longitude": 16.359722222222, "altitude": null, "precision": null, "globe": "http://www.wikidata.org/entity/Q2"}}}, "residence": {"0": {"name": "Vaterstetten", "coordinates": {"latitude": 48.105, "longitude": 11.770555555556, "altitude": null, "precision": 0.00027777777777778, "globe": "http://www.wikidata.org/entity/Q2"}}}}