{"id": "Q960081", "name": "Kenneth Burke", "countryOfCitizenship": {"0": "United States of America"}, "dateOfBirth": {"0": "+1897-05-05T00:00:00Z"}, "dateOfDeath": {"0": "+1993-11-19T00:00:00Z"}, "occupation": {"0": "philosopher", "1": "literary critic", "2": "university teacher", "3": "sociologist", "4": "journalist", "5": "writer", "6": "music critic", "7": "rhetorician", "8": "producer"}, "employer": {"0": {"name": "Harvard University", "coordinates": {"latitude": 42.374443888889, "longitude": -71.116943888889, "altitude": null, "precision": 2.77778e-06, "globe": "http://www.wikidata.org/entity/Q2"}}, "1": {"name": "University of Chicago", "coordinates": {"latitude": 41.789722222222, "longitude": -87.599722222222, "altitude": null, "precision": 0.00027777777777778, "globe": "http://www.wikidata.org/entity/Q2"}}, "2": {"name": "Princeton University", "coordinates": {"latitude": 40.345277777778, "longitude": -74.656111111111, "altitude": null, "precision": 0.00027777777777778, "globe": "http://www.wikidata.org/entity/Q2"}}, "3": {"name": "Rutgers University", "coordinates": {"latitude": 40.501666666667, "longitude": -74.448055555556, "altitude": null, "precision": 0.00027777777777778, "globe": "http://www.wikidata.org/entity/Q2"}}}, "educatedAt": {"0": {"name": "Ohio State University", "coordinates": {"latitude": 40, "longitude": -83.0125, "altitude": null, "precision": 0.000277778, "globe": "http://www.wikidata.org/entity/Q2"}}, "1": {"name": "Columbia University", "coordinates": {"latitude": 40.8075, "longitude": -73.961944444444, "altitude": null, "precision": 0.00027777777777778, "globe": "http://www.wikidata.org/entity/Q2"}}, "2": {"name": "Peabody High School", "coordinates": {"latitude": 40.46694, "longitude": -79.92333, "altitude": null, "precision": 2.77777777778e-06, "globe": "http://www.wikidata.org/entity/Q2"}}}, "fieldOfWork": {"0": "philosophy"}}