{"id": "Q971585", "name": "Hubert Dreyfus", "countryOfCitizenship": {"0": "United States of America"}, "dateOfBirth": {"0": "+1929-10-15T00:00:00Z", "1": "+1929-00-00T00:00:00Z"}, "image": {"0": "Hubert Dreyfus.jpg"}, "educatedAt": {"0": {"name": "Harvard University", "coordinates": {"latitude": 42.374443888889, "longitude": -71.116943888889, "altitude": null, "precision": 2.77778e-06, "globe": "http://www.wikidata.org/entity/Q2"}}}, "employer": {"0": {"name": "Massachusetts Institute of Technology", "coordinates": {"latitude": 42.359722222222224, "longitude": -71.09194444444445, "altitude": null, "precision": 0.0002777777777777778, "globe": "http://www.wikidata.org/entity/Q2"}}, "1": {"name": "Brandeis University", "coordinates": {"latitude": 42.36566, "longitude": -71.25974, "altitude": null, "precision": 1e-06, "globe": "http://www.wikidata.org/entity/Q2"}}, "2": {"name": "University of California, Berkeley", "coordinates": {"latitude": 37.87, "longitude": -122.259, "altitude": null, "precision": 0.00027777777777778, "globe": "http://www.wikidata.org/entity/Q2"}}, "3": {"name": "Goethe University Frankfurt", "coordinates": {"latitude": 50.12791, "longitude": 8.66944, "altitude": null, "precision": 1e-05, "globe": "http://www.wikidata.org/entity/Q2"}}}, "fieldOfWork": {"0": "existentialism", "1": "phenomenology", "2": "philosophy", "3": "philosophy and literature", "4": "artificial intelligence"}, "occupation": {"0": "philosopher", "1": "university teacher", "2": "writer"}, "dateOfDeath": {"0": "+2017-04-22T00:00:00Z"}, "timePeriod": {"0": "20th century", "1": "21st century"}, "edges": {"influencedBy": {"0": {"id": "Q48301", "name": "Martin Heidegger"}, "1": {"id": "Q212639", "name": "Maurice Merleau-Ponty"}, "2": {"id": "Q44272", "name": "Michel Foucault"}, "3": {"id": "Q6512", "name": "S\u00f8ren Kierkegaard"}, "4": {"id": "Q1157217", "name": "Dagfinn F\u00f8llesdal"}}, "student": {"0": {"id": "Q6770432", "name": "Mark Wrathall"}, "1": {"id": "Q504346", "name": "Fernando Flores"}, "2": {"id": "Q16106643", "name": "Charles Guignon"}}}}