{"id": "Q104461", "name": "Heinrich Scholz", "desc": "German theologian (1884-1956)", "wiki_link": "https://en.wikipedia.org/wiki/Heinrich_Scholz", "placeOfBirth": {"0": {"id": "Q64", "name": "Berlin", "coordinates": {"latitude": 52.516666666667, "longitude": 13.383333333333, "altitude": null, "precision": 0.016666666666667, "globe": "http://www.wikidata.org/entity/Q2"}}}, "placeOfDeath": {"0": {"id": "Q2742", "name": "M\u00fcnster", "coordinates": {"latitude": 51.9625, "longitude": 7.6255555555556, "altitude": null, "precision": 0.00027777777777778, "globe": "http://www.wikidata.org/entity/Q2"}}}, "countryOfCitizenship": {"0": {"id": "Q183", "name": "Germany", "coordinates": {"latitude": 51, "longitude": 10, "altitude": null, "precision": 1, "globe": "http://www.wikidata.org/entity/Q2"}}}, "dateOfBirth": {"0": "+1884-12-17T00:00:00Z"}, "dateOfDeath": {"0": "+1956-12-30T00:00:00Z"}, "image": {"0": "HeinrichScholz.jpg"}, "occupation": {"0": {"id": "Q170790", "name": "mathematician"}, "1": {"id": "Q17486330", "name": "historian of mathematics"}, "2": {"id": "Q4964182", "name": "philosopher"}, "3": {"id": "Q1234713", "name": "theologian"}, "4": {"id": "Q1622272", "name": "university teacher"}}, "employer": {"0": {"id": "Q168426", "name": "University of M\u00fcnster", "coordinates": {"latitude": 51.964, "longitude": 7.613, "altitude": null, "precision": null, "globe": "http://www.wikidata.org/entity/Q2"}}, "1": {"id": "Q315658", "name": "University of Wroc\u0142aw", "coordinates": {"latitude": 51.113611111111, "longitude": 17.033333333333, "altitude": null, "precision": null, "globe": "http://www.wikidata.org/entity/Q2"}}, "2": {"id": "Q156737", "name": "University of Kiel", "coordinates": {"latitude": 54.338888888889, "longitude": 10.1225, "altitude": null, "precision": null, "globe": "http://www.wikidata.org/entity/Q2"}}}, "educatedAt": {"0": {"id": "Q20266330", "name": "Frederick William University", "coordinates": {"latitude": 52.518056, "longitude": 13.393333, "altitude": null, "precision": 1e-06, "globe": "http://www.wikidata.org/entity/Q2"}}, "1": {"id": "Q40025", "name": "University of Erlangen\u2013Nuremberg", "coordinates": {"latitude": 49.600717498174966, "longitude": 11.004722360236146, "altitude": null, "precision": 1e-08, "globe": "http://www.wikidata.org/entity/Q2"}}, "2": {"id": "Q152087", "name": "Humboldt University of Berlin", "coordinates": {"latitude": 52.518055555556, "longitude": 13.393333333333, "altitude": null, "precision": null, "globe": "http://www.wikidata.org/entity/Q2"}}}, "doctralStudent": {"0": {"id": "Q1458304", "name": "Friedrich Bachmann"}, "1": {"id": "Q1527182", "name": "Gisbert Hasenjaeger"}, "2": {"id": "Q1639323", "name": "Karl Schr\u00f6ter"}, "3": {"id": "Q1425952", "name": "Hans Hermes"}, "4": {"id": "Q102217332", "name": "Hermann Schweitzer"}, "5": {"id": "Q102242617", "name": "Anna (Schwester Maria Nicetia) Holling"}, "6": {"id": "Q102242627", "name": "Eugen Roth"}, "7": {"id": "Q102248563", "name": "Walter Kinder"}, "8": {"id": "Q102404483", "name": "Eduard Arens"}, "9": {"id": "Q102414041", "name": "Shih-hua Shihua Hu"}}, "influencedBy": {"0": {"id": "Q183372", "name": "Alfred North Whitehead"}}, "studentOf": {"0": {"id": "Q89206", "name": "Richard Falckenberg"}, "1": {"id": "Q542405", "name": "Alois Riehl"}}, "edges": {"influencedBy": {"0": {"id": "Q183372", "name": "Alfred North Whitehead", "similarity": 0.26828163862228394}}}, "priority": 0.1794871794871795}