{"id": "Q104461", "name": "Heinrich Scholz", "countryOfCitizenship": {"0": "Germany"}, "dateOfBirth": {"0": "+1884-12-17T00:00:00Z"}, "dateOfDeath": {"0": "+1956-12-30T00:00:00Z"}, "image": {"0": "HeinrichScholz.jpg"}, "occupation": {"0": "mathematician", "1": "historian of mathematics", "2": "philosopher", "3": "theologian", "4": "university teacher"}, "employer": {"0": {"name": "University of M\u00fcnster", "coordinates": {"latitude": 51.964, "longitude": 7.613, "altitude": null, "precision": null, "globe": "http://www.wikidata.org/entity/Q2"}}, "1": {"name": "University of Wroc\u0142aw", "coordinates": {"latitude": 51.113611111111, "longitude": 17.033333333333, "altitude": null, "precision": null, "globe": "http://www.wikidata.org/entity/Q2"}}, "2": {"name": "University of Kiel", "coordinates": {"latitude": 54.338888888889, "longitude": 10.1225, "altitude": null, "precision": null, "globe": "http://www.wikidata.org/entity/Q2"}}}, "educatedAt": {"0": {"name": "Frederick William University", "coordinates": {"latitude": 52.518056, "longitude": 13.393333, "altitude": null, "precision": 1e-06, "globe": "http://www.wikidata.org/entity/Q2"}}, "1": {"name": "University of Erlangen\u2013Nuremberg", "coordinates": {"latitude": 49.600717498174966, "longitude": 11.004722360236146, "altitude": null, "precision": 1e-08, "globe": "http://www.wikidata.org/entity/Q2"}}, "2": {"name": "Humboldt University of Berlin", "coordinates": {"latitude": 52.518055555556, "longitude": 13.393333333333, "altitude": null, "precision": null, "globe": "http://www.wikidata.org/entity/Q2"}}}, "doctralStudent": {"0": "Friedrich Bachmann", "1": "Karl Schr\u00f6ter", "2": "Hans Hermes", "3": "Hermann Schweitzer", "4": "Anna (Schwester Maria Nicetia) Holling", "5": "Eugen Roth", "6": "Walter Kinder", "7": "Eduard Arens", "8": "Shih-hua Shihua Hu"}, "edges": {"studentOf": {"0": {"id": "Q542405", "name": "Alois Riehl"}, "1": {"id": "Q89206", "name": "Richard Falckenberg"}}, "student": {"0": {"id": "Q1527182", "name": "Gisbert Hasenjaeger"}}, "influencedBy": {"0": {"id": "Q183372", "name": "Alfred North Whitehead"}}}}