{"id": "Q1290", "name": "Blaise Pascal", "desc": "French mathematician, physicist, inventor, writer, and Christian philosopher (1623\u20131662)", "wiki_link": "https://en.wikipedia.org/wiki/Blaise_Pascal", "placeOfDeath": {"0": {"id": "Q90", "name": "Paris", "coordinates": {"latitude": 48.85666666666667, "longitude": 2.352222222222222, "altitude": null, "precision": 0.0002777777777777778, "globe": "http://www.wikidata.org/entity/Q2"}}}, "placeOfBirth": {"0": {"id": "Q42168", "name": "Clermont-Ferrand", "coordinates": {"latitude": 45.779722222222, "longitude": 3.0869444444444, "altitude": null, "precision": 0.00027777777777778, "globe": "http://www.wikidata.org/entity/Q2"}}, "1": {"id": "Q111362759", "name": "birth house of Blaise Pascal", "coordinates": {"latitude": 45.77841, "longitude": 3.08526, "altitude": null, "precision": 1e-08, "globe": "http://www.wikidata.org/entity/Q2"}}, "2": {"id": "Q2975160", "name": "Clairmont", "coordinates": {"latitude": 45.778, "longitude": 3.083, "altitude": null, "precision": 0.001, "globe": "http://www.wikidata.org/entity/Q2"}}}, "fieldOfWork": {"0": {"id": "Q5862903", "name": "probability theory"}}, "dateOfBirth": {"0": "+1623-06-19T00:00:00Z"}, "dateOfDeath": {"0": "+1662-08-19T00:00:00Z"}, "influencedBy": {"0": {"id": "Q8018", "name": "Augustine of Hippo"}, "1": {"id": "Q41568", "name": "Michel de Montaigne"}, "2": {"id": "Q9191", "name": "Ren\u00e9 Descartes"}, "3": {"id": "Q318943", "name": "Cornelius Jansen"}, "4": {"id": "Q183144", "name": "Epictetus"}}, "countryOfCitizenship": {"0": {"id": "Q70972", "name": "Kingdom of France", "coordinates": {"latitude": 48.85666666666667, "longitude": 2.352222222222222, "altitude": null, "precision": 0.0002777777777777778, "globe": "http://www.wikidata.org/entity/Q2"}}}, "notableWork": {"0": {"id": "Q17360856", "name": "Pens\u00e9es"}, "1": {"id": "Q1279437", "name": "Lettres provinciales"}}, "studentOf": {"0": {"id": "Q188663", "name": "Marin Mersenne"}}, "image": {"0": "FR-631136102 GRA 6025 Portrait de Blaise Pascal par Edelinck (cropped).jpg"}, "occupation": {"0": {"id": "Q170790", "name": "mathematician"}, "1": {"id": "Q4964182", "name": "philosopher"}, "2": {"id": "Q1234713", "name": "theologian"}, "3": {"id": "Q169470", "name": "physicist"}, "4": {"id": "Q36180", "name": "writer"}, "5": {"id": "Q1297719", "name": "French moralist"}, "6": {"id": "Q2732142", "name": "statistician"}}, "residence": {"0": {"id": "Q42168", "name": "Clermont-Ferrand", "coordinates": {"latitude": 45.779722222222, "longitude": 3.0869444444444, "altitude": null, "precision": 0.00027777777777778, "globe": "http://www.wikidata.org/entity/Q2"}}, "1": {"id": "Q90", "name": "Paris", "coordinates": {"latitude": 48.85666666666667, "longitude": 2.352222222222222, "altitude": null, "precision": 0.0002777777777777778, "globe": "http://www.wikidata.org/entity/Q2"}}, "2": {"id": "Q30974", "name": "Rouen", "coordinates": {"latitude": 49.443055555556, "longitude": 1.1025, "altitude": null, "precision": 0.00027777777777778, "globe": "http://www.wikidata.org/entity/Q2"}}, "3": {"id": "Q90", "name": "Paris", "coordinates": {"latitude": 48.85666666666667, "longitude": 2.352222222222222, "altitude": null, "precision": 0.0002777777777777778, "globe": "http://www.wikidata.org/entity/Q2"}}}, "edges": {"influenced": {"0": {"id": "Q125249", "name": "William James", "similarity": 0.054009366780519485}, "1": {"id": "Q9068", "name": "Voltaire", "similarity": 0.3106108605861664}, "2": {"id": "Q9358", "name": "Friedrich Nietzsche", "similarity": 0.20639188587665558}, "3": {"id": "Q9047", "name": "Gottfried Wilhelm Leibniz", "similarity": 0.32961505651474}, "4": {"id": "Q314189", "name": "Lev Shestov", "similarity": 0.2206481248140335}, "5": {"id": "Q140694", "name": "Alexis de Tocqueville", "similarity": 0.1104135811328888}}, "influencedBy": {"0": {"id": "Q8018", "name": "Augustine of Hippo", "similarity": 0.27198970317840576}, "1": {"id": "Q41568", "name": "Michel de Montaigne", "similarity": 0.22701293230056763}}}, "priority": 0.9270216962524654}