{"id": "Q184530", "name": "Gerolamo Cardano", "desc": "Italian Renaissance mathematician, physician, astrologer (1501-1576)", "wiki_link": "https://en.wikipedia.org/wiki/Gerolamo_Cardano", "occupation": {"0": {"id": "Q4964182", "name": "philosopher"}, "1": {"id": "Q170790", "name": "mathematician"}, "2": {"id": "Q155647", "name": "astrologer"}, "3": {"id": "Q205375", "name": "inventor"}, "4": {"id": "Q81096", "name": "engineer"}, "5": {"id": "Q39631", "name": "physician"}}, "placeOfBirth": {"0": {"id": "Q16231", "name": "Province of Pavia", "coordinates": {"latitude": 45.183333333333, "longitude": 9.15, "altitude": null, "precision": 0.016666666666667, "globe": "http://www.wikidata.org/entity/Q2"}}, "1": {"id": "Q6259", "name": "Pavia", "coordinates": {"latitude": 45.185280555556, "longitude": 9.155, "altitude": null, "precision": 0.000277778, "globe": "http://www.wikidata.org/entity/Q2"}}}, "placeOfDeath": {"0": {"id": "Q220", "name": "Rome", "coordinates": {"latitude": 41.893055555556, "longitude": 12.482777777778, "altitude": null, "precision": 0.00027777777777778, "globe": "http://www.wikidata.org/entity/Q2"}}}, "dateOfBirth": {"0": "+1501-09-24T00:00:00Z"}, "dateOfDeath": {"0": "+1576-09-21T00:00:00Z", "1": "+1576-09-20T00:00:00Z"}, "image": {"0": "Girolamo Cardano. Stipple engraving by R. Cooper. Wellcome V0001004.jpg"}, "educatedAt": {"0": {"id": "Q219317", "name": "University of Pavia", "coordinates": {"latitude": 45.18675, "longitude": 9.15586, "altitude": null, "precision": 1e-05, "globe": "http://www.wikidata.org/entity/Q2"}}, "1": {"id": "Q193510", "name": "University of Padua", "coordinates": {"latitude": 45.42, "longitude": 11.87, "altitude": null, "precision": 0.0002777777777777778, "globe": "http://www.wikidata.org/entity/Q2"}}}, "fieldOfWork": {"0": {"id": "Q395", "name": "mathematics"}}, "employer": {"0": {"id": "Q131262", "name": "University of Bologna", "coordinates": {"latitude": 44.493888888889, "longitude": 11.342777777778, "altitude": null, "precision": null, "globe": "http://www.wikidata.org/entity/Q2"}}, "1": {"id": "Q219317", "name": "University of Pavia", "coordinates": {"latitude": 45.18675, "longitude": 9.15586, "altitude": null, "precision": 1e-05, "globe": "http://www.wikidata.org/entity/Q2"}}}, "doctralStudent": {"0": {"id": "Q310783", "name": "Lodovico Ferrari"}}, "student": {"0": {"id": "Q1229085", "name": "Gasparo Tagliacozzi"}, "1": {"id": "Q2287807", "name": "Simone Simoni"}}, "countryOfCitizenship": {"0": {"id": "Q153529", "name": "Duchy of Milan", "coordinates": {"latitude": 45.466669444444, "longitude": 9.1666694444444, "altitude": null, "precision": 2.7777777777778e-06, "globe": "http://www.wikidata.org/entity/Q2"}}}, "influencedBy": {"0": {"id": "Q8739", "name": "Archimedes"}}, "edges": {"taught": {"0": {"id": "Q2287807", "name": "Simone Simoni", "similarity": 0.21107199788093567}}, "influencedBy": {"0": {"id": "Q8739", "name": "Archimedes", "similarity": 0.40322884917259216}}}, "priority": 0.5562130177514792}