{"id": "Q184366", "name": "Thomas Henry Huxley", "desc": "British biologist and comparative anatomist (1825\u20131895)", "wiki_link": "https://en.wikipedia.org/wiki/Thomas_Henry_Huxley", "occupation": {"0": {"id": "Q864503", "name": "biologist"}, "1": {"id": "Q14467526", "name": "linguist"}, "2": {"id": "Q1662561", "name": "paleontologist"}, "3": {"id": "Q333634", "name": "translator"}, "4": {"id": "Q4205432", "name": "ichthyologist"}, "5": {"id": "Q350979", "name": "zoologist"}, "6": {"id": "Q16868721", "name": "carcinologist"}, "7": {"id": "Q10872101", "name": "anatomist"}, "8": {"id": "Q33231", "name": "photographer"}, "9": {"id": "Q4964182", "name": "philosopher"}, "10": {"id": "Q4773904", "name": "anthropologist"}, "11": {"id": "Q2055046", "name": "physiologist"}, "12": {"id": "Q18805", "name": "naturalist"}, "13": {"id": "Q36180", "name": "writer"}, "14": {"id": "Q16063497", "name": "evolutionary biologist"}}, "countryOfCitizenship": {"0": {"id": "Q174193", "name": "United Kingdom of Great Britain and Ireland"}}, "dateOfBirth": {"0": "+1825-05-04T00:00:00Z", "1": "+1825-01-01T00:00:00Z"}, "dateOfDeath": {"0": "+1895-06-29T00:00:00Z", "1": "+1895-01-01T00:00:00Z"}, "image": {"0": "T.H.Huxley(Woodburytype).jpg"}, "educatedAt": {"0": {"id": "Q193196", "name": "University College London", "coordinates": {"latitude": 51.52472222222222, "longitude": -0.13361111111111112, "altitude": null, "precision": 0.0002777777777777778, "globe": "http://www.wikidata.org/entity/Q2"}}, "1": {"id": "Q4982607", "name": "Charing Cross Hospital", "coordinates": {"latitude": 51.4871, "longitude": -0.2195, "altitude": null, "precision": 0.0001, "globe": "http://www.wikidata.org/entity/Q2"}}, "2": {"id": "Q5074354", "name": "Charing Cross Hospital Medical School", "coordinates": {"latitude": 51.4872, "longitude": -0.2202, "altitude": null, "precision": 0.0001, "globe": "http://www.wikidata.org/entity/Q2"}}, "3": {"id": "Q6006500", "name": "Imperial College School of Medicine", "coordinates": {"latitude": 51.4987, "longitude": -0.1757, "altitude": null, "precision": 0.0001, "globe": "http://www.wikidata.org/entity/Q2"}}, "4": {"id": "Q5599084", "name": "Great Ealing School", "coordinates": {"latitude": 51.5064, "longitude": -0.3072, "altitude": null, "precision": 0.0001, "globe": "http://www.wikidata.org/entity/Q2"}}}, "employer": {"0": {"id": "Q189022", "name": "Imperial College London", "coordinates": {"latitude": 51.498308, "longitude": -0.176882, "altitude": null, "precision": 0.00027777777777778, "globe": "http://www.wikidata.org/entity/Q2"}}}, "fieldOfWork": {"0": {"id": "Q431", "name": "zoology"}, "1": {"id": "Q25241", "name": "Vertebrata"}, "2": {"id": "Q1063", "name": "evolution"}}, "influencedBy": {"0": {"id": "Q1035", "name": "Charles Darwin"}}, "doctralStudent": {"0": {"id": "Q770417", "name": "Michael Foster"}}, "residence": {"0": {"id": "Q84", "name": "London", "coordinates": {"latitude": 51.507222222222, "longitude": -0.1275, "altitude": null, "precision": 0.00027777777777778, "globe": "http://www.wikidata.org/entity/Q2"}}}, "studentOf": {"0": {"id": "Q7795024", "name": "Thomas Wharton Jones"}}, "edges": {"influencedBy": {"0": {"id": "Q1035", "name": "Charles Darwin", "similarity": 0.4885706901550293}}}, "priority": 0.14792899408284024}