{"id": "Q184980", "name": "Thomas Kuhn", "desc": "American historian, physicist and philosopher", "wiki_link": "https://en.wikipedia.org/wiki/Thomas_Kuhn", "placeOfBirth": {"0": {"id": "Q43196", "name": "Cincinnati", "coordinates": {"latitude": 39.1, "longitude": -84.5125, "altitude": null, "precision": 0.0002777777777777778, "globe": "http://www.wikidata.org/entity/Q2"}}}, "placeOfDeath": {"0": {"id": "Q49111", "name": "Cambridge", "coordinates": {"latitude": 42.375, "longitude": -71.106111111111, "altitude": null, "precision": 0.00027777777777778, "globe": "http://www.wikidata.org/entity/Q2"}}}, "countryOfCitizenship": {"0": {"id": "Q30", "name": "United States of America", "coordinates": {"latitude": 39.828175, "longitude": -98.5795, "altitude": null, "precision": 1e-06, "globe": "http://www.wikidata.org/entity/Q2"}}}, "dateOfBirth": {"0": "+1922-07-18T00:00:00Z"}, "dateOfDeath": {"0": "+1996-06-17T00:00:00Z"}, "educatedAt": {"0": {"id": "Q13371", "name": "Harvard University", "coordinates": {"latitude": 42.374443888889, "longitude": -71.116943888889, "altitude": null, "precision": 2.77778e-06, "globe": "http://www.wikidata.org/entity/Q2"}}, "1": {"id": "Q13371", "name": "Harvard University", "coordinates": {"latitude": 42.374443888889, "longitude": -71.116943888889, "altitude": null, "precision": 2.77778e-06, "globe": "http://www.wikidata.org/entity/Q2"}}, "2": {"id": "Q13371", "name": "Harvard University", "coordinates": {"latitude": 42.374443888889, "longitude": -71.116943888889, "altitude": null, "precision": 2.77778e-06, "globe": "http://www.wikidata.org/entity/Q2"}}, "3": {"id": "Q96380958", "name": "Hessian Hills School", "coordinates": ""}, "4": {"id": "Q7675047", "name": "Taft School", "coordinates": {"latitude": 41.6045, "longitude": -73.1243, "altitude": null, "precision": 0.0001, "globe": "http://www.wikidata.org/entity/Q2"}}, "5": {"id": "Q13371", "name": "Harvard University", "coordinates": {"latitude": 42.374443888889, "longitude": -71.116943888889, "altitude": null, "precision": 2.77778e-06, "globe": "http://www.wikidata.org/entity/Q2"}}}, "occupation": {"0": {"id": "Q169470", "name": "physicist"}, "1": {"id": "Q16063546", "name": "historian of science"}, "2": {"id": "Q16389557", "name": "philosopher of science"}, "3": {"id": "Q1622272", "name": "university teacher"}}, "employer": {"0": {"id": "Q21578", "name": "Princeton University", "coordinates": {"latitude": 40.345277777778, "longitude": -74.656111111111, "altitude": null, "precision": 0.00027777777777778, "globe": "http://www.wikidata.org/entity/Q2"}}, "1": {"id": "Q13371", "name": "Harvard University", "coordinates": {"latitude": 42.374443888889, "longitude": -71.116943888889, "altitude": null, "precision": 2.77778e-06, "globe": "http://www.wikidata.org/entity/Q2"}}, "2": {"id": "Q49108", "name": "Massachusetts Institute of Technology", "coordinates": {"latitude": 42.359722222222224, "longitude": -71.09194444444445, "altitude": null, "precision": 0.0002777777777777778, "globe": "http://www.wikidata.org/entity/Q2"}}, "3": {"id": "Q168756", "name": "University of California, Berkeley", "coordinates": {"latitude": 37.87, "longitude": -122.259, "altitude": null, "precision": 0.00027777777777778, "globe": "http://www.wikidata.org/entity/Q2"}}}, "residence": {"0": {"id": "Q49111", "name": "Cambridge", "coordinates": {"latitude": 42.375, "longitude": -71.106111111111, "altitude": null, "precision": 0.00027777777777778, "globe": "http://www.wikidata.org/entity/Q2"}}, "1": {"id": "Q43196", "name": "Cincinnati", "coordinates": {"latitude": 39.1, "longitude": -84.5125, "altitude": null, "precision": 0.0002777777777777778, "globe": "http://www.wikidata.org/entity/Q2"}}, "2": {"id": "Q484678", "name": "Berkeley", "coordinates": {"latitude": 37.870277777778, "longitude": -122.26805555556, "altitude": null, "precision": 0.00027777777777778, "globe": "http://www.wikidata.org/entity/Q2"}}, "3": {"id": "Q138518", "name": "Princeton", "coordinates": {"latitude": 40.352222222222, "longitude": -74.656944444444, "altitude": null, "precision": 0.00027777777777778, "globe": "http://www.wikidata.org/entity/Q2"}}}, "notableWork": {"0": {"id": "Q951060", "name": "The Structure of Scientific Revolutions"}, "1": {"id": "Q7727581", "name": "The Copernican Revolution"}}, "fieldOfWork": {"0": {"id": "Q59115", "name": "philosophy of science"}, "1": {"id": "Q183216", "name": "analytic philosophy"}, "2": {"id": "Q201486", "name": "history of science"}}, "image": {"0": "Thomas-kuhn-portrait.png"}, "movement": {"0": {"id": "Q842333", "name": "Western philosophy"}}, "timePeriod": {"0": {"id": "Q943303", "name": "contemporary philosophy"}}, "influencedBy": {"0": {"id": "Q61885", "name": "Carl Gustav Hempel"}, "1": {"id": "Q123190", "name": "Jean Piaget"}, "2": {"id": "Q163087", "name": "Michael Polanyi"}}, "doctralStudent": {"0": {"id": "Q1700413", "name": "John L. Heilbron"}, "1": {"id": "Q6834262", "name": "Michael Sean Mahoney"}}, "edges": {"influencedBy": {"0": {"id": "Q123190", "name": "Jean Piaget", "similarity": 0.4527249336242676}, "1": {"id": "Q163087", "name": "Michael Polanyi", "similarity": 0.3138744831085205}}, "learnedFrom": {"0": {"id": "Q81244", "name": "Karl Popper", "similarity": 0.27400320768356323}}}, "priority": 0.6017316017316018}