{"id": "Q186123", "name": "Francis Fukuyama", "desc": "American political scientist, political economist, and author", "wiki_link": "https://en.wikipedia.org/wiki/Francis_Fukuyama", "dateOfBirth": {"0": "+1952-10-27T00:00:00Z"}, "countryOfCitizenship": {"0": "United States of America"}, "occupation": {"0": "writer", "1": "political scientist", "2": "blogger", "3": "economist", "4": "philosopher", "5": "photographer"}, "image": {"0": "Francis Fukuyama 2015 (cropped).jpg", "1": "Francis Fukuyama no Fronteiras do Pensamento S\u00e3o Paulo (28022453222) (cropped).jpg"}, "educatedAt": {"0": {"name": "Harvard University", "coordinates": {"latitude": 42.374443888889, "longitude": -71.116943888889, "altitude": null, "precision": 2.77778e-06, "globe": "http://www.wikidata.org/entity/Q2"}}, "1": {"name": "Cornell University", "coordinates": {"latitude": 42.447222222222, "longitude": -76.483055555556, "altitude": null, "precision": 0.00027777777777778, "globe": "http://www.wikidata.org/entity/Q2"}}, "2": {"name": "Kansai University", "coordinates": {"latitude": 34.77395277777778, "longitude": 135.5100388888889, "altitude": null, "precision": 2.777777777777778e-06, "globe": "http://www.wikidata.org/entity/Q2"}}, "3": {"name": "State College Area High School", "coordinates": {"latitude": 40.7824, "longitude": -77.8572, "altitude": null, "precision": 0.0001, "globe": "http://www.wikidata.org/entity/Q2"}}}, "employer": {"0": {"name": "Johns Hopkins University", "coordinates": {"latitude": 39.32888888888889, "longitude": -76.62055555555555, "altitude": null, "precision": 0.0002777777777777778, "globe": "http://www.wikidata.org/entity/Q2"}}, "1": {"name": "George Mason University", "coordinates": {"latitude": 38.8308, "longitude": -77.3075, "altitude": null, "precision": 0.00027777777777778, "globe": "http://www.wikidata.org/entity/Q2"}}, "2": {"name": "Kansai University", "coordinates": {"latitude": 34.77395277777778, "longitude": 135.5100388888889, "altitude": null, "precision": 2.777777777777778e-06, "globe": "http://www.wikidata.org/entity/Q2"}}}, "notableWork": {"0": "The End of History and the Last Man"}, "studentOf": {"0": "Samuel P. Huntington", "1": "Allan Bloom"}, "fieldOfWork": {"0": "philosophy", "1": "economics", "2": "political science", "3": "economics and politics", "4": "global politics"}, "edges": {"learnedFrom": {"0": {"id": "Q19074", "name": "Samuel P. Huntington"}}}}