{"id": "Q186123", "name": "Francis Fukuyama", "desc": "American political scientist, political economist, and author", "wiki_link": "https://en.wikipedia.org/wiki/Francis_Fukuyama", "dateOfBirth": {"0": "+1952-10-27T00:00:00Z"}, "countryOfCitizenship": {"0": {"id": "Q30", "name": "United States of America", "coordinates": {"latitude": 39.828175, "longitude": -98.5795, "altitude": null, "precision": 1e-06, "globe": "http://www.wikidata.org/entity/Q2"}}}, "occupation": {"0": {"id": "Q36180", "name": "writer"}, "1": {"id": "Q1238570", "name": "political scientist"}, "2": {"id": "Q8246794", "name": "blogger"}, "3": {"id": "Q188094", "name": "economist"}, "4": {"id": "Q4964182", "name": "philosopher"}, "5": {"id": "Q33231", "name": "photographer"}}, "image": {"0": "Francis Fukuyama 2015 (cropped).jpg", "1": "Francis Fukuyama no Fronteiras do Pensamento S\u00e3o Paulo (28022453222) (cropped).jpg"}, "placeOfBirth": {"0": {"id": "Q3143666", "name": "Hyde Park", "coordinates": {"latitude": 41.8, "longitude": -87.59, "altitude": null, "precision": 0.016666666666667, "globe": "http://www.wikidata.org/entity/Q2"}}}, "educatedAt": {"0": {"id": "Q13371", "name": "Harvard University", "coordinates": {"latitude": 42.374443888889, "longitude": -71.116943888889, "altitude": null, "precision": 2.77778e-06, "globe": "http://www.wikidata.org/entity/Q2"}}, "1": {"id": "Q49115", "name": "Cornell University", "coordinates": {"latitude": 42.447222222222, "longitude": -76.483055555556, "altitude": null, "precision": 0.00027777777777778, "globe": "http://www.wikidata.org/entity/Q2"}}, "2": {"id": "Q1149393", "name": "Kansai University", "coordinates": {"latitude": 34.77395277777778, "longitude": 135.5100388888889, "altitude": null, "precision": 2.777777777777778e-06, "globe": "http://www.wikidata.org/entity/Q2"}}, "3": {"id": "Q7603113", "name": "State College Area High School", "coordinates": {"latitude": 40.7824, "longitude": -77.8572, "altitude": null, "precision": 0.0001, "globe": "http://www.wikidata.org/entity/Q2"}}}, "employer": {"0": {"id": "Q193727", "name": "Johns Hopkins University", "coordinates": {"latitude": 39.32888888888889, "longitude": -76.62055555555555, "altitude": null, "precision": 0.0002777777777777778, "globe": "http://www.wikidata.org/entity/Q2"}}, "1": {"id": "Q1411222", "name": "George Mason University", "coordinates": {"latitude": 38.8308, "longitude": -77.3075, "altitude": null, "precision": 0.00027777777777778, "globe": "http://www.wikidata.org/entity/Q2"}}, "2": {"id": "Q1149393", "name": "Kansai University", "coordinates": {"latitude": 34.77395277777778, "longitude": 135.5100388888889, "altitude": null, "precision": 2.777777777777778e-06, "globe": "http://www.wikidata.org/entity/Q2"}}}, "notableWork": {"0": {"id": "Q1340341", "name": "The End of History and the Last Man"}}, "studentOf": {"0": {"id": "Q19074", "name": "Samuel P. Huntington"}, "1": {"id": "Q948966", "name": "Allan Bloom"}}, "fieldOfWork": {"0": {"id": "Q5891", "name": "philosophy"}, "1": {"id": "Q8134", "name": "economics"}, "2": {"id": "Q36442", "name": "political science"}, "3": {"id": "Q115161685", "name": "economics and politics"}, "4": {"id": "Q5570874", "name": "global politics"}}, "edges": {"learnedFrom": {"0": {"id": "Q19074", "name": "Samuel P. Huntington", "similarity": 0.4169159531593323}}}, "priority": 0.1542056074766355}