{"id": "Q205162", "name": "Isaiah Berlin", "desc": "Russo-British Jewish social and political theorist, philosopher and historian of ideas (1909-1997)", "wiki_link": "https://en.wikipedia.org/wiki/Isaiah_Berlin", "occupation": {"0": {"id": "Q4964182", "name": "philosopher"}, "1": {"id": "Q201788", "name": "historian"}, "2": {"id": "Q1622272", "name": "university teacher"}, "3": {"id": "Q193391", "name": "diplomat"}, "4": {"id": "Q11491523", "name": "historian of ideas"}}, "placeOfBirth": {"0": {"id": "Q1773", "name": "Riga", "coordinates": {"latitude": 56.9475, "longitude": 24.106944444444, "altitude": null, "precision": 0.00027777777777778, "globe": "http://www.wikidata.org/entity/Q2"}}}, "placeOfDeath": {"0": {"id": "Q34217", "name": "Oxford", "coordinates": {"latitude": 51.751944444444, "longitude": -1.2577777777778, "altitude": null, "precision": 0.0166667, "globe": "http://www.wikidata.org/entity/Q2"}}, "1": {"id": "Q4674298", "name": "Acland Hospital", "coordinates": {"latitude": 51.7609, "longitude": -1.261, "altitude": null, "precision": 0.0001, "globe": "http://www.wikidata.org/entity/Q2"}}}, "countryOfCitizenship": {"0": {"id": "Q145", "name": "United Kingdom", "coordinates": {"latitude": 54.6, "longitude": -2, "altitude": null, "precision": 0.1, "globe": "http://www.wikidata.org/entity/Q2"}}}, "dateOfDeath": {"0": "+1997-11-05T00:00:00Z"}, "dateOfBirth": {"0": "+1909-06-06T00:00:00Z"}, "educatedAt": {"0": {"id": "Q1135137", "name": "Corpus Christi College", "coordinates": {"latitude": 51.75091, "longitude": -1.2537, "altitude": null, "precision": 1e-06, "globe": "http://www.wikidata.org/entity/Q2"}}, "1": {"id": "Q1227526", "name": "St Paul's School", "coordinates": {"latitude": 51.488402, "longitude": -0.235888, "altitude": null, "precision": 2.77777777778e-06, "globe": "http://www.wikidata.org/entity/Q2"}}}, "influencedBy": {"0": {"id": "Q317075", "name": "R. G. Collingwood"}, "1": {"id": "Q160640", "name": "Raymond Aron"}}, "image": {"0": "IsaiahBerlin1983.jpg"}, "employer": {"0": {"id": "Q34433", "name": "University of Oxford", "coordinates": {"latitude": 51.755, "longitude": -1.255, "altitude": null, "precision": 0.0002777777777777778, "globe": "http://www.wikidata.org/entity/Q2"}}}, "fieldOfWork": {"0": {"id": "Q5891", "name": "philosophy"}}, "student": {"0": {"id": "Q57272060", "name": "Geoffrey Midgley"}}, "doctralStudent": {"0": {"id": "Q381044", "name": "Michael Sandel"}}, "notableWork": {"0": {"id": "Q855216", "name": "Two Concepts of Liberty"}}, "edges": {"influencedBy": {"0": {"id": "Q160640", "name": "Raymond Aron", "similarity": 0.13166949152946472}}}, "priority": 0.3177570093457944}