{"id": "Q211539", "name": "Peter Singer", "desc": "Australian moral philosopher", "wiki_link": "https://en.wikipedia.org/wiki/Peter_Singer", "dateOfBirth": {"0": "+1946-07-06T00:00:00Z"}, "image": {"0": "Peter Singer 2017 (cropped).jpg"}, "fieldOfWork": {"0": {"id": "Q194294", "name": "bioethics"}, "1": {"id": "Q538733", "name": "applied ethics"}}, "countryOfCitizenship": {"0": {"id": "Q408", "name": "Australia"}}, "occupation": {"0": {"id": "Q4964182", "name": "philosopher"}, "1": {"id": "Q121594", "name": "professor"}, "2": {"id": "Q36180", "name": "writer"}, "3": {"id": "Q82955", "name": "politician"}}, "employer": {"0": {"id": "Q21578", "name": "Princeton University", "coordinates": {"latitude": 40.345277777778, "longitude": -74.656111111111, "altitude": null, "precision": 0.00027777777777778, "globe": "http://www.wikidata.org/entity/Q2"}}, "1": {"id": "Q49210", "name": "New York University", "coordinates": {"latitude": 40.73, "longitude": -73.995, "altitude": null, "precision": 0.00027777777777778, "globe": "http://www.wikidata.org/entity/Q2"}}, "2": {"id": "Q319078", "name": "University of Melbourne", "coordinates": {"latitude": -37.7963, "longitude": 144.9614, "altitude": null, "precision": 2.77777777778e-06, "globe": "http://www.wikidata.org/entity/Q2"}}, "3": {"id": "Q598841", "name": "Monash University", "coordinates": {"latitude": -37.908333333333, "longitude": 145.13805555556, "altitude": null, "precision": 0.00027777777777778, "globe": "http://www.wikidata.org/entity/Q2"}}, "4": {"id": "Q81087", "name": "University College, Oxford", "coordinates": {"latitude": 51.752453, "longitude": -1.251996, "altitude": null, "precision": 1e-06, "globe": "http://www.wikidata.org/entity/Q2"}}, "5": {"id": "Q1478723", "name": "La Trobe University", "coordinates": {"latitude": -37.72179, "longitude": 145.047909, "altitude": null, "precision": null, "globe": "http://www.wikidata.org/entity/Q2"}}}, "educatedAt": {"0": {"id": "Q81087", "name": "University College, Oxford", "coordinates": {"latitude": 51.752453, "longitude": -1.251996, "altitude": null, "precision": 1e-06, "globe": "http://www.wikidata.org/entity/Q2"}}, "1": {"id": "Q319078", "name": "University of Melbourne", "coordinates": {"latitude": -37.7963, "longitude": 144.9614, "altitude": null, "precision": 2.77777777778e-06, "globe": "http://www.wikidata.org/entity/Q2"}}, "2": {"id": "Q7435507", "name": "Scotch College", "coordinates": {"latitude": -37.83416667, "longitude": 145.02944444, "altitude": null, "precision": 0.00027777777777778, "globe": "http://www.wikidata.org/entity/Q2"}}, "3": {"id": "Q7241076", "name": "Preshil, The Margaret Lyttle Memorial School", "coordinates": {"latitude": -37.8133, "longitude": 145.049, "altitude": null, "precision": 0.0001, "globe": "http://www.wikidata.org/entity/Q2"}}}, "notableWork": {"0": {"id": "Q547344", "name": "Animal Liberation"}, "1": {"id": "Q6967851", "name": "The Life You Can Save"}}, "timePeriod": {"0": {"id": "Q943303", "name": "contemporary philosophy"}}, "movement": {"0": {"id": "Q842333", "name": "Western philosophy"}, "1": {"id": "Q160590", "name": "utilitarianism"}, "2": {"id": "Q629420", "name": "animal rights movement"}, "3": {"id": "Q13489381", "name": "effective altruism"}}, "priority": 0.2445759368836292}