{"id": "Q237833", "name": "George Santayana", "countryOfCitizenship": {"0": "Spain"}, "dateOfBirth": {"0": "+1863-12-16T00:00:00Z", "1": "+1863-10-02T00:00:00Z"}, "dateOfDeath": {"0": "+1952-09-26T00:00:00Z", "1": "+1952-09-16T00:00:00Z"}, "employer": {"0": {"name": "Harvard University", "coordinates": {"latitude": 42.374443888889, "longitude": -71.116943888889, "altitude": null, "precision": 2.77778e-06, "globe": "http://www.wikidata.org/entity/Q2"}}}, "image": {"0": "George Santayana.jpg"}, "educatedAt": {"0": {"name": "Harvard University", "coordinates": {"latitude": 42.374443888889, "longitude": -71.116943888889, "altitude": null, "precision": 2.77778e-06, "globe": "http://www.wikidata.org/entity/Q2"}}, "1": {"name": "Humboldt University of Berlin", "coordinates": {"latitude": 52.518055555556, "longitude": 13.393333333333, "altitude": null, "precision": null, "globe": "http://www.wikidata.org/entity/Q2"}}, "2": {"name": "King's College", "coordinates": {"latitude": 52.204166666667, "longitude": 0.11666666666667, "altitude": null, "precision": null, "globe": "http://www.wikidata.org/entity/Q2"}}, "3": {"name": "Harvard College", "coordinates": {"latitude": 42.374, "longitude": -71.117, "altitude": null, "precision": 0.00027777777777778, "globe": "http://www.wikidata.org/entity/Q2"}}, "4": {"name": "Boston Latin School", "coordinates": {"latitude": 42.338, "longitude": -71.102, "altitude": null, "precision": 0.001, "globe": "http://www.wikidata.org/entity/Q2"}}}, "occupation": {"0": "philosopher", "1": "writer", "2": "poet", "3": "novelist", "4": "essayist", "5": "university teacher"}, "residence": {"0": {"name": "\u00c1vila", "coordinates": {"latitude": 40.654347222222, "longitude": -4.6962222222222, "altitude": null, "precision": 2.7777777777778e-06, "globe": "http://www.wikidata.org/entity/Q2"}}, "1": {"name": "Beacon Street", "coordinates": {"latitude": 42.3472, "longitude": -71.1033, "altitude": null, "precision": 0.0001, "globe": "http://www.wikidata.org/entity/Q2"}}}, "fieldOfWork": {"0": "philosophy", "1": "creative and professional writing", "2": "poetry"}, "edges": {"influenced": {"0": {"id": "Q33760", "name": "Bertrand Russell"}}}}