{"id": "Q2458048", "name": "Fredy Perlman", "dateOfBirth": {"0": "+1934-08-20T00:00:00Z"}, "dateOfDeath": {"0": "+1985-07-26T00:00:00Z"}, "countryOfCitizenship": {"0": "United States of America"}, "educatedAt": {"0": {"name": "Columbia University", "coordinates": {"latitude": 40.8075, "longitude": -73.961944444444, "altitude": null, "precision": 0.00027777777777778, "globe": "http://www.wikidata.org/entity/Q2"}}, "1": {"name": "University of Belgrade Faculty of Law", "coordinates": {"latitude": 44.8072, "longitude": 20.4721, "altitude": null, "precision": 0.01, "globe": "http://www.wikidata.org/entity/Q2"}}, "2": {"name": "University of California, Los Angeles", "coordinates": {"latitude": 34.07222222222222, "longitude": -118.44416666666666, "altitude": null, "precision": 0.0002777777777777778, "globe": "http://www.wikidata.org/entity/Q2"}}, "3": {"name": "University of Belgrade", "coordinates": {"latitude": 44.81861111111111, "longitude": 20.4575, "altitude": null, "precision": 0.0002777777777777778, "globe": "http://www.wikidata.org/entity/Q2"}}}, "occupation": {"0": "translator", "1": "publisher", "2": "trade unionist", "3": "writer", "4": "philosopher"}, "employer": {"0": {"name": "Western Michigan University", "coordinates": {"latitude": 42.283178, "longitude": -85.615219, "altitude": null, "precision": 0.00027777777777778, "globe": "http://www.wikidata.org/entity/Q2"}}}, "notableWork": {"0": "Against His-Story, Against Leviathan!", "1": "Letters of Insurgents", "2": "Plunder", "3": "The Continuing Appeal of Nationalism"}, "edges": {"influenced": {"0": {"id": "Q3182114", "name": "John Moore"}}}}