{"id": "Q253407", "name": "Donna Haraway", "desc": "American philosopher, scholar in the field of science and technology studies", "wiki_link": "https://en.wikipedia.org/wiki/Donna_Haraway", "image": {"0": "Donna Haraway 2006 (cropped).jpg"}, "countryOfCitizenship": {"0": {"id": "Q30", "name": "United States of America", "coordinates": {"latitude": 39.828175, "longitude": -98.5795, "altitude": null, "precision": 1e-06, "globe": "http://www.wikidata.org/entity/Q2"}}}, "dateOfBirth": {"0": "+1944-09-06T00:00:00Z"}, "placeOfBirth": {"0": {"id": "Q16554", "name": "Denver", "coordinates": {"latitude": 39.739166666667, "longitude": -104.98472222222, "altitude": null, "precision": 0.00027777777777778, "globe": "http://www.wikidata.org/entity/Q2"}}}, "occupation": {"0": {"id": "Q4964182", "name": "philosopher"}, "1": {"id": "Q2306091", "name": "sociologist"}, "2": {"id": "Q1622272", "name": "university teacher"}, "3": {"id": "Q201788", "name": "historian"}, "4": {"id": "Q864503", "name": "biologist"}, "5": {"id": "Q15980158", "name": "non-fiction writer"}}, "educatedAt": {"0": {"id": "Q49112", "name": "Yale University", "coordinates": {"latitude": 41.311111111111, "longitude": -72.926666666667, "altitude": null, "precision": null, "globe": "http://www.wikidata.org/entity/Q2"}}, "1": {"id": "Q1111261", "name": "Colorado College", "coordinates": {"latitude": 38.848611, "longitude": -104.825, "altitude": null, "precision": 1e-06, "globe": "http://www.wikidata.org/entity/Q2"}}, "2": {"id": "Q1206658", "name": "University of Colorado", "coordinates": ""}}, "employer": {"0": {"id": "Q1047293", "name": "University of California, Santa Cruz", "coordinates": {"latitude": 36.9914, "longitude": -122.0609, "altitude": null, "precision": -1e-05, "globe": "http://www.wikidata.org/entity/Q2"}}, "1": {"id": "Q681250", "name": "European Graduate School", "coordinates": {"latitude": 46.11457, "longitude": 7.92939, "altitude": null, "precision": 0.00027777777777778, "globe": "http://www.wikidata.org/entity/Q2"}}, "2": {"id": "Q193727", "name": "Johns Hopkins University", "coordinates": {"latitude": 39.32888888888889, "longitude": -76.62055555555555, "altitude": null, "precision": 0.0002777777777777778, "globe": "http://www.wikidata.org/entity/Q2"}}, "3": {"id": "Q217439", "name": "University of Hawai\u02bbi", "coordinates": {"latitude": 21.297, "longitude": -157.817, "altitude": null, "precision": 0.01, "globe": "http://www.wikidata.org/entity/Q2"}}}, "studentOf": {"0": {"id": "Q3112992", "name": "Grace Evelyn Pickford"}}, "fieldOfWork": {"0": {"id": "Q1662673", "name": "gender studies"}}, "notableWork": {"0": {"id": "Q96627435", "name": "When Species Meet"}, "1": {"id": "Q3984104", "name": "A Cyborg Manifesto"}, "2": {"id": "Q55633934", "name": "Staying with the Trouble"}}, "priority": 0.3530571992110454}