{"id": "Q253407", "name": "Donna Haraway", "desc": "American philosopher, scholar in the field of science and technology studies", "wiki_link": "https://en.wikipedia.org/wiki/Donna_Haraway", "image": {"0": "Donna Haraway 2006 (cropped).jpg"}, "countryOfCitizenship": {"0": "United States of America"}, "dateOfBirth": {"0": "+1944-09-06T00:00:00Z"}, "occupation": {"0": "philosopher", "1": "sociologist", "2": "university teacher", "3": "historian", "4": "biologist", "5": "non-fiction writer"}, "educatedAt": {"0": {"name": "Yale University", "coordinates": {"latitude": 41.311111111111, "longitude": -72.926666666667, "altitude": null, "precision": null, "globe": "http://www.wikidata.org/entity/Q2"}}, "1": {"name": "Colorado College", "coordinates": {"latitude": 38.848611, "longitude": -104.825, "altitude": null, "precision": 1e-06, "globe": "http://www.wikidata.org/entity/Q2"}}, "2": {"name": "University of Colorado", "coordinates": ""}}, "employer": {"0": {"name": "University of California, Santa Cruz", "coordinates": {"latitude": 36.9914, "longitude": -122.0609, "altitude": null, "precision": -1e-05, "globe": "http://www.wikidata.org/entity/Q2"}}, "1": {"name": "European Graduate School", "coordinates": {"latitude": 46.11457, "longitude": 7.92939, "altitude": null, "precision": 0.00027777777777778, "globe": "http://www.wikidata.org/entity/Q2"}}, "2": {"name": "Johns Hopkins University", "coordinates": {"latitude": 39.32888888888889, "longitude": -76.62055555555555, "altitude": null, "precision": 0.0002777777777777778, "globe": "http://www.wikidata.org/entity/Q2"}}, "3": {"name": "University of Hawai\u02bbi", "coordinates": {"latitude": 21.297, "longitude": -157.817, "altitude": null, "precision": 0.01, "globe": "http://www.wikidata.org/entity/Q2"}}}, "studentOf": {"0": "Grace Evelyn Pickford"}, "fieldOfWork": {"0": "gender studies"}, "notableWork": {"0": "When Species Meet", "1": "A Cyborg Manifesto", "2": "Staying with the Trouble"}}