{"id": "Q258358", "name": "Alva No\u00eb", "educatedAt": {"0": {"name": "University of Oxford", "coordinates": {"latitude": 51.755, "longitude": -1.255, "altitude": null, "precision": 0.0002777777777777778, "globe": "http://www.wikidata.org/entity/Q2"}}, "1": {"name": "Harvard University", "coordinates": {"latitude": 42.374443888889, "longitude": -71.116943888889, "altitude": null, "precision": 2.77778e-06, "globe": "http://www.wikidata.org/entity/Q2"}}}, "countryOfCitizenship": {"0": "United States of America"}, "dateOfBirth": {"0": "+1964-01-01T00:00:00Z"}, "employer": {"0": {"name": "University of California, Berkeley", "coordinates": {"latitude": 37.87, "longitude": -122.259, "altitude": null, "precision": 0.00027777777777778, "globe": "http://www.wikidata.org/entity/Q2"}}, "1": {"name": "City University of New York", "coordinates": {"latitude": 40.75095435534939, "longitude": -73.9735038, "altitude": null, "precision": 1e-08, "globe": "http://www.wikidata.org/entity/Q2"}}, "2": {"name": "University of California, Santa Cruz", "coordinates": {"latitude": 36.9914, "longitude": -122.0609, "altitude": null, "precision": -1e-05, "globe": "http://www.wikidata.org/entity/Q2"}}}, "occupation": {"0": "philosopher", "1": "university teacher"}, "image": {"0": "Alva No\u00eb (3419836383).jpg"}, "edges": {"studentOf": {"0": {"id": "Q7970225", "name": "Warren Goldfarb"}}}}