{"id": "Q290536", "name": "Ram Dass", "desc": "American contemporary spiritual teacher and the author of the 1971 book Be Here Now", "wiki_link": "https://en.wikipedia.org/wiki/Ram_Dass", "countryOfCitizenship": {"0": {"id": "Q30", "name": "United States of America", "coordinates": {"latitude": 39.828175, "longitude": -98.5795, "altitude": null, "precision": 1e-06, "globe": "http://www.wikidata.org/entity/Q2"}}}, "dateOfBirth": {"0": "+1931-04-06T00:00:00Z"}, "image": {"0": "Ram Dass.jpg"}, "placeOfBirth": {"0": {"id": "Q100", "name": "Boston", "coordinates": {"latitude": 42.360277777777775, "longitude": -71.05777777777777, "altitude": null, "precision": 0.0002777777777777778, "globe": "http://www.wikidata.org/entity/Q2"}}}, "employer": {"0": {"id": "Q13371", "name": "Harvard University", "coordinates": {"latitude": 42.374443888889, "longitude": -71.116943888889, "altitude": null, "precision": 2.77778e-06, "globe": "http://www.wikidata.org/entity/Q2"}}, "1": {"id": "Q168756", "name": "University of California, Berkeley", "coordinates": {"latitude": 37.87, "longitude": -122.259, "altitude": null, "precision": 0.00027777777777778, "globe": "http://www.wikidata.org/entity/Q2"}}}, "educatedAt": {"0": {"id": "Q49167", "name": "Wesleyan University", "coordinates": {"latitude": 41.55562, "longitude": -72.655844, "altitude": null, "precision": 0.00027777777777778, "globe": "http://www.wikidata.org/entity/Q2"}}, "1": {"id": "Q41506", "name": "Stanford University", "coordinates": {"latitude": 37.4275, "longitude": -122.17, "altitude": null, "precision": 0.0002777777777777778, "globe": "http://www.wikidata.org/entity/Q2"}}, "2": {"id": "Q49120", "name": "Tufts University", "coordinates": {"latitude": 42.406949, "longitude": -71.11982, "altitude": null, "precision": 0.00027777777777778, "globe": "http://www.wikidata.org/entity/Q2"}}, "3": {"id": "Q8022149", "name": "Williston Northampton School", "coordinates": {"latitude": 42.266758333333, "longitude": -72.671780555556, "altitude": null, "precision": 0.00027777777777778, "globe": "http://www.wikidata.org/entity/Q2"}}}, "occupation": {"0": {"id": "Q212980", "name": "psychologist"}, "1": {"id": "Q3400985", "name": "academic"}, "2": {"id": "Q1622272", "name": "university teacher"}, "3": {"id": "Q36180", "name": "writer"}, "4": {"id": "Q484260", "name": "guru"}, "5": {"id": "Q4964182", "name": "philosopher"}, "6": {"id": "Q29352392", "name": "spiritual teacher"}}, "dateOfDeath": {"0": "+2019-12-22T00:00:00Z"}, "placeOfDeath": {"0": {"id": "Q188705", "name": "Maui", "coordinates": {"latitude": 20.8, "longitude": -156.3, "altitude": null, "precision": 0.0002777777777777778, "globe": "http://www.wikidata.org/entity/Q2"}}}, "student": {"0": {"id": "Q122878977", "name": "Doug Kraft"}}, "priority": 0.04339250493096647}