{"id": "Q290536", "name": "Ram Dass", "countryOfCitizenship": {"0": "United States of America"}, "dateOfBirth": {"0": "+1931-04-06T00:00:00Z"}, "image": {"0": "Ram Dass.jpg"}, "employer": {"0": {"name": "Harvard University", "coordinates": {"latitude": 42.374443888889, "longitude": -71.116943888889, "altitude": null, "precision": 2.77778e-06, "globe": "http://www.wikidata.org/entity/Q2"}}, "1": {"name": "University of California, Berkeley", "coordinates": {"latitude": 37.87, "longitude": -122.259, "altitude": null, "precision": 0.00027777777777778, "globe": "http://www.wikidata.org/entity/Q2"}}}, "educatedAt": {"0": {"name": "Wesleyan University", "coordinates": {"latitude": 41.55562, "longitude": -72.655844, "altitude": null, "precision": 0.00027777777777778, "globe": "http://www.wikidata.org/entity/Q2"}}, "1": {"name": "Stanford University", "coordinates": {"latitude": 37.4275, "longitude": -122.17, "altitude": null, "precision": 0.0002777777777777778, "globe": "http://www.wikidata.org/entity/Q2"}}, "2": {"name": "Tufts University", "coordinates": {"latitude": 42.406949, "longitude": -71.11982, "altitude": null, "precision": 0.00027777777777778, "globe": "http://www.wikidata.org/entity/Q2"}}, "3": {"name": "Williston Northampton School", "coordinates": {"latitude": 42.266758333333, "longitude": -72.671780555556, "altitude": null, "precision": 0.00027777777777778, "globe": "http://www.wikidata.org/entity/Q2"}}}, "occupation": {"0": "psychologist", "1": "academic", "2": "university teacher", "3": "writer", "4": "guru", "5": "philosopher", "6": "spiritual teacher"}, "dateOfDeath": {"0": "+2019-12-22T00:00:00Z"}, "student": {"0": "Doug Kraft"}, "edges": {"influenced": {"0": {"id": "Q119114589", "name": "David Reynolds"}}}}