{"id": "Q3089931", "name": "Fr\u00e9d\u00e9ric Keck", "occupation": {"0": "anthropologist", "1": "researcher", "2": "university teacher", "3": "translator", "4": "philosopher"}, "countryOfCitizenship": {"0": "France"}, "dateOfBirth": {"0": "+1974-11-30T00:00:00Z", "1": "+1974-01-01T00:00:00Z"}, "educatedAt": {"0": {"name": "\u00c9cole Normale Sup\u00e9rieure", "coordinates": {"latitude": 48.841944444444, "longitude": 2.3444444444444, "altitude": null, "precision": 0.00027777777777778, "globe": "http://www.wikidata.org/entity/Q2"}}, "1": {"name": "Charles de Gaulle University of humanities arts and social sciences", "coordinates": {"latitude": 50.627778, "longitude": 3.126389, "altitude": null, "precision": 1e-06, "globe": "http://www.wikidata.org/entity/Q2"}}, "2": {"name": "University of California, Berkeley", "coordinates": {"latitude": 37.87, "longitude": -122.259, "altitude": null, "precision": 0.00027777777777778, "globe": "http://www.wikidata.org/entity/Q2"}}}, "employer": {"0": {"name": "Charles de Gaulle University of humanities arts and social sciences", "coordinates": {"latitude": 50.627778, "longitude": 3.126389, "altitude": null, "precision": 1e-06, "globe": "http://www.wikidata.org/entity/Q2"}}, "1": {"name": "National Center for Scientific Research", "coordinates": {"latitude": 48.8477, "longitude": 2.264, "altitude": null, "precision": 2.77777777778e-06, "globe": "http://www.wikidata.org/entity/Q2"}}, "2": {"name": "Mus\u00e9e du quai Branly", "coordinates": {"latitude": 48.860833333333, "longitude": 2.2975, "altitude": null, "precision": 0.00027777777777778, "globe": "http://www.wikidata.org/entity/Q2"}}}, "fieldOfWork": {"0": "philosophy", "1": "social anthropology", "2": "genetics", "3": "microbiology"}, "edges": {"studentOf": {"0": {"id": "Q326897", "name": "Pierre Macherey"}}}}