{"id": "Q310765", "name": "David Bohm", "desc": "American theoretical physicist", "wiki_link": "https://en.wikipedia.org/wiki/David_Bohm", "occupation": {"0": "physicist", "1": "philosopher", "2": "university teacher", "3": "nuclear physicist"}, "countryOfCitizenship": {"0": "United States of America"}, "dateOfBirth": {"0": "+1917-12-20T00:00:00Z"}, "dateOfDeath": {"0": "+1992-10-27T00:00:00Z"}, "image": {"0": "David Bohm.jpg"}, "employer": {"0": {"name": "University of S\u00e3o Paulo", "coordinates": {"latitude": -23.5613991, "longitude": -46.7307891, "altitude": null, "precision": 1e-07, "globe": "http://www.wikidata.org/entity/Q2"}}, "1": {"name": "Birkbeck, University of London", "coordinates": {"latitude": 51.521876306596965, "longitude": -0.13032533037784091, "altitude": null, "precision": 1e-08, "globe": "http://www.wikidata.org/entity/Q2"}}, "2": {"name": "University of California, Berkeley", "coordinates": {"latitude": 37.87, "longitude": -122.259, "altitude": null, "precision": 0.00027777777777778, "globe": "http://www.wikidata.org/entity/Q2"}}, "3": {"name": "Princeton University", "coordinates": {"latitude": 40.345277777778, "longitude": -74.656111111111, "altitude": null, "precision": 0.00027777777777778, "globe": "http://www.wikidata.org/entity/Q2"}}, "4": {"name": "Technion \u2013 Israel Institute of Technology", "coordinates": {"latitude": 32.7775, "longitude": 35.021666666667, "altitude": null, "precision": null, "globe": "http://www.wikidata.org/entity/Q2"}}, "5": {"name": "University of Bristol", "coordinates": {"latitude": 51.456388888889, "longitude": -2.6044444444444, "altitude": null, "precision": null, "globe": "http://www.wikidata.org/entity/Q2"}}}, "educatedAt": {"0": {"name": "University of Bristol", "coordinates": {"latitude": 51.456388888889, "longitude": -2.6044444444444, "altitude": null, "precision": null, "globe": "http://www.wikidata.org/entity/Q2"}}, "1": {"name": "California Institute of Technology", "coordinates": {"latitude": 34.1375, "longitude": -118.125, "altitude": null, "precision": 0.0002777777777777778, "globe": "http://www.wikidata.org/entity/Q2"}}, "2": {"name": "University of California, Berkeley", "coordinates": {"latitude": 37.87, "longitude": -122.259, "altitude": null, "precision": 0.00027777777777778, "globe": "http://www.wikidata.org/entity/Q2"}}, "3": {"name": "G. A. R. Memorial Junior Senior High School", "coordinates": {"latitude": 41.234, "longitude": -75.883, "altitude": null, "precision": 0.001, "globe": "http://www.wikidata.org/entity/Q2"}}}, "doctralStudent": {"0": "David Pines", "1": "Yakir Aharonov", "2": "Jeffrey Bub", "3": "Harry J. Lipkin", "4": "Eugene P. Gross"}, "fieldOfWork": {"0": "physics", "1": "quantum physics", "2": "quantum theory"}, "influencedBy": {"0": "Albert Einstein"}, "edges": {"taught": {"0": {"id": "Q6175878", "name": "Jeffrey Bub"}}, "influencedBy": {"0": {"id": "Q937", "name": "Albert Einstein"}}}}