{"id": "Q311826", "name": "Muhammad Abduh", "desc": "Egyptian Islamic jurist, religious scholar and liberal reformer (1849-1905)", "wiki_link": "https://en.wikipedia.org/wiki/Muhammad_Abduh", "countryOfCitizenship": {"0": {"id": "Q12560", "name": "Ottoman Empire", "coordinates": {"latitude": 41, "longitude": 29, "altitude": null, "precision": 1, "globe": "http://www.wikidata.org/entity/Q2"}}}, "placeOfBirth": {"0": {"id": "Q5600888", "name": "Shubra Khit", "coordinates": {"latitude": 31.0275, "longitude": 30.71277778, "altitude": null, "precision": 0.00032357744468055, "globe": "http://www.wikidata.org/entity/Q2"}}, "1": {"id": "Q30630", "name": "Beheira Governorate", "coordinates": {"latitude": 30.61, "longitude": 30.43, "altitude": null, "precision": 1, "globe": "http://www.wikidata.org/entity/Q2"}}, "2": {"id": "Q491507", "name": "Egypt Eyalet", "coordinates": {"latitude": 30.05, "longitude": 31.21666667, "altitude": null, "precision": 0.016666666666667, "globe": "http://www.wikidata.org/entity/Q2"}}, "3": {"id": "Q12560", "name": "Ottoman Empire", "coordinates": {"latitude": 41, "longitude": 29, "altitude": null, "precision": 1, "globe": "http://www.wikidata.org/entity/Q2"}}}, "placeOfDeath": {"0": {"id": "Q87", "name": "Alexandria", "coordinates": {"latitude": 31.1975, "longitude": 29.8925, "altitude": null, "precision": 0.0002777777777777778, "globe": "http://www.wikidata.org/entity/Q2"}}}, "dateOfBirth": {"0": "+1849-01-01T00:00:00Z"}, "dateOfDeath": {"0": "+1905-07-11T00:00:00Z"}, "occupation": {"0": {"id": "Q185351", "name": "jurist"}, "1": {"id": "Q1234713", "name": "theologian"}, "2": {"id": "Q16533", "name": "judge"}, "3": {"id": "Q6051619", "name": "opinion journalist"}, "4": {"id": "Q82955", "name": "politician"}, "5": {"id": "Q40348", "name": "lawyer"}, "6": {"id": "Q36180", "name": "writer"}, "7": {"id": "Q4964182", "name": "philosopher"}}, "image": {"0": "Muhammad Abduh.jpg"}, "fieldOfWork": {"0": {"id": "Q484181", "name": "fiqh"}, "1": {"id": "Q7163", "name": "politics"}}, "educatedAt": {"0": {"id": "Q173959", "name": "Al-Azhar University", "coordinates": {"latitude": 30.0583, "longitude": 31.3126, "altitude": null, "precision": 0.0001, "globe": "http://www.wikidata.org/entity/Q2"}}}, "employer": {"0": {"id": "Q173959", "name": "Al-Azhar University", "coordinates": {"latitude": 30.0583, "longitude": 31.3126, "altitude": null, "precision": 0.0001, "globe": "http://www.wikidata.org/entity/Q2"}}}, "studentOf": {"0": {"id": "Q298434", "name": "Jamal al-Din al-Afghani"}}, "notableWork": {"0": {"id": "Q19485183", "name": "Tafsir al-Manar"}}, "student": {"0": {"id": "Q28042217", "name": "Ibrahim al-Dabbagh"}, "1": {"id": "Q107130684", "name": "Umar Taqi al-Din al-Rafi'i"}, "2": {"id": "Q108655526", "name": "Ahmad Miftah al-Ommari"}, "3": {"id": "Q471046", "name": "Rida Muhammad Rashid"}}, "edges": {"taught": {"0": {"id": "Q471046", "name": "Rida Muhammad Rashid", "similarity": 0.40766745805740356}}}, "priority": 0.48520710059171596}