{"id": "Q335011", "name": "Thomas Merton", "desc": "priest and author", "wiki_link": "https://en.wikipedia.org/wiki/Thomas_Merton", "placeOfBirth": {"0": {"id": "Q212450", "name": "Prades", "coordinates": {"latitude": 42.617222222222, "longitude": 2.4219444444444, "altitude": null, "precision": 0.00027777777777778, "globe": "http://www.wikidata.org/entity/Q2"}}}, "occupation": {"0": {"id": "Q1234713", "name": "theologian"}, "1": {"id": "Q49757", "name": "poet"}, "2": {"id": "Q11774202", "name": "essayist"}, "3": {"id": "Q18814623", "name": "autobiographer"}, "4": {"id": "Q1930187", "name": "journalist"}, "5": {"id": "Q16323111", "name": "peace activist"}, "6": {"id": "Q250867", "name": "Catholic priest"}, "7": {"id": "Q36180", "name": "writer"}}, "dateOfBirth": {"0": "+1915-01-31T00:00:00Z", "1": "+1915-01-15T00:00:00Z"}, "dateOfDeath": {"0": "+1968-12-10T00:00:00Z"}, "placeOfDeath": {"0": {"id": "Q1861", "name": "Bangkok", "coordinates": {"latitude": 13.75, "longitude": 100.51666666667, "altitude": null, "precision": 0.016666666666667, "globe": "http://www.wikidata.org/entity/Q2"}}}, "countryOfCitizenship": {"0": {"id": "Q30", "name": "United States of America", "coordinates": {"latitude": 39.828175, "longitude": -98.5795, "altitude": null, "precision": 1e-06, "globe": "http://www.wikidata.org/entity/Q2"}}}, "educatedAt": {"0": {"id": "Q760967", "name": "Clare College", "coordinates": {"latitude": 52.205083333333, "longitude": 0.11519444444444, "altitude": null, "precision": 0.00027777777777778, "globe": "http://www.wikidata.org/entity/Q2"}}, "1": {"id": "Q49088", "name": "Columbia University", "coordinates": {"latitude": 40.8075, "longitude": -73.961944444444, "altitude": null, "precision": 0.00027777777777778, "globe": "http://www.wikidata.org/entity/Q2"}}, "2": {"id": "Q7073892", "name": "Oakham School", "coordinates": {"latitude": 52.6704, "longitude": -0.7277, "altitude": null, "precision": 2.77777777778e-06, "globe": "http://www.wikidata.org/entity/Q2"}}}, "image": {"0": "Merton Trappist.gif"}, "employer": {"0": {"id": "Q93662", "name": "St. Bonaventure University", "coordinates": {"latitude": 42.0781, "longitude": -78.4813, "altitude": null, "precision": 0.0001, "globe": "http://www.wikidata.org/entity/Q2"}}}, "priority": 0.03747534516765286}