{"id": "Q3350847", "name": "Olivier Boulnois", "educatedAt": {"0": {"name": "Lyc\u00e9e Henri-IV", "coordinates": {"latitude": 48.84583333, "longitude": 2.34777778, "altitude": null, "precision": 0.00027777777777778, "globe": "http://www.wikidata.org/entity/Q2"}}, "1": {"name": "Lyc\u00e9e Condorcet", "coordinates": {"latitude": 48.874722, "longitude": 2.327222, "altitude": null, "precision": 1e-06, "globe": "http://www.wikidata.org/entity/Q2"}}, "2": {"name": "Lyc\u00e9e Lakanal", "coordinates": {"latitude": 48.77638889, "longitude": 2.30416667, "altitude": null, "precision": 0.00027777777777778, "globe": "http://www.wikidata.org/entity/Q2"}}, "3": {"name": "\u00c9cole Normale Sup\u00e9rieure", "coordinates": {"latitude": 48.841944444444, "longitude": 2.3444444444444, "altitude": null, "precision": 0.00027777777777778, "globe": "http://www.wikidata.org/entity/Q2"}}, "4": {"name": "University of Poitiers", "coordinates": {"latitude": 46.586111111111, "longitude": 0.34388888888889, "altitude": null, "precision": 0.00027777777777778, "globe": "http://www.wikidata.org/entity/Q2"}}}, "dateOfBirth": {"0": "+1961-08-10T00:00:00Z"}, "countryOfCitizenship": {"0": "France"}, "occupation": {"0": "philosopher"}, "employer": {"0": {"name": "University of Nantes", "coordinates": {"latitude": 47.237879, "longitude": -1.554284, "altitude": null, "precision": 1e-06, "globe": "http://www.wikidata.org/entity/Q2"}}, "1": {"name": "\u00c9cole pratique des hautes \u00e9tudes", "coordinates": {"latitude": 48.8311, "longitude": 2.34, "altitude": null, "precision": 1e-07, "globe": "http://www.wikidata.org/entity/Q2"}}, "2": {"name": "Catholic University of Paris", "coordinates": {"latitude": 48.84801513010181, "longitude": 2.3299361601076343, "altitude": null, "precision": 2.777777777777778e-06, "globe": "http://www.wikidata.org/entity/Q2"}}}, "doctralStudent": {"0": "Axel Tisserand", "1": "Camille de Villeneuve", "2": "Jean-Marc Goglin", "3": "Marie de l'Assomption"}, "edges": {"student": {"0": {"id": "Q3524100", "name": "Thierry-Dominique Humbrecht"}, "1": {"id": "Q15787889", "name": "Bernd Goebel"}, "2": {"id": "Q113806617", "name": "Dominique Demange"}, "3": {"id": "Q93250542", "name": "Gianpiero Tavolaro"}}}}