{"id": "Q345641", "name": "Bernard Williams", "desc": "English moral philosopher (1929\u20132003)", "wiki_link": "https://en.wikipedia.org/wiki/Bernard_Williams", "occupation": {"0": {"id": "Q4964182", "name": "philosopher"}, "1": {"id": "Q1622272", "name": "university teacher"}}, "dateOfBirth": {"0": "+1929-09-21T00:00:00Z"}, "dateOfDeath": {"0": "+2003-06-10T00:00:00Z", "1": "+2003-06-11T00:00:00Z"}, "placeOfDeath": {"0": {"id": "Q220", "name": "Rome", "coordinates": {"latitude": 41.893055555556, "longitude": 12.482777777778, "altitude": null, "precision": 0.00027777777777778, "globe": "http://www.wikidata.org/entity/Q2"}}}, "countryOfCitizenship": {"0": {"id": "Q145", "name": "United Kingdom", "coordinates": {"latitude": 54.6, "longitude": -2, "altitude": null, "precision": 0.1, "globe": "http://www.wikidata.org/entity/Q2"}}}, "educatedAt": {"0": {"id": "Q805285", "name": "Balliol College", "coordinates": {"latitude": 51.7547, "longitude": -1.2578, "altitude": null, "precision": 0.0001, "globe": "http://www.wikidata.org/entity/Q2"}}, "1": {"id": "Q5097250", "name": "Chigwell School", "coordinates": {"latitude": 51.625, "longitude": 0.081, "altitude": null, "precision": 2.777777777778e-05, "globe": "http://www.wikidata.org/entity/Q2"}}}, "employer": {"0": {"id": "Q193196", "name": "University College London", "coordinates": {"latitude": 51.52472222222222, "longitude": -0.13361111111111112, "altitude": null, "precision": 0.0002777777777777778, "globe": "http://www.wikidata.org/entity/Q2"}}, "1": {"id": "Q168756", "name": "University of California, Berkeley", "coordinates": {"latitude": 37.87, "longitude": -122.259, "altitude": null, "precision": 0.00027777777777778, "globe": "http://www.wikidata.org/entity/Q2"}}}, "placeOfBirth": {"0": {"id": "Q2584915", "name": "Westcliff-on-Sea", "coordinates": {"latitude": 51.539722222222224, "longitude": 0.6908333333333334, "altitude": null, "precision": 0.0002777777777777778, "globe": "http://www.wikidata.org/entity/Q2"}}}, "movement": {"0": {"id": "Q842333", "name": "Western philosophy"}}, "fieldOfWork": {"0": {"id": "Q9465", "name": "ethics"}, "1": {"id": "Q844569", "name": "identity"}}, "influencedBy": {"0": {"id": "Q9358", "name": "Friedrich Nietzsche"}, "1": {"id": "Q297493", "name": "Philippa Foot"}}, "timePeriod": {"0": {"id": "Q943303", "name": "contemporary philosophy"}}, "doctralStudent": {"0": {"id": "Q63118217", "name": "Alan Thomas"}, "1": {"id": "Q4153311", "name": "Lydia Goehr"}}, "edges": {"influencedBy": {"0": {"id": "Q9358", "name": "Friedrich Nietzsche", "similarity": 0.23378564417362213}}}, "priority": 0.4161735700197239}