{"id": "Q364456", "name": "Michel Serres", "countryOfCitizenship": {"0": "France"}, "dateOfBirth": {"0": "+1930-09-01T00:00:00Z"}, "educatedAt": {"0": {"name": "\u00c9cole Normale Sup\u00e9rieure", "coordinates": {"latitude": 48.841944444444, "longitude": 2.3444444444444, "altitude": null, "precision": 0.00027777777777778, "globe": "http://www.wikidata.org/entity/Q2"}}, "1": {"name": "\u00c9cole Navale", "coordinates": {"latitude": 48.27916667, "longitude": -4.415, "altitude": null, "precision": 0.00027777777777778, "globe": "http://www.wikidata.org/entity/Q2"}}, "2": {"name": "Lyc\u00e9e Louis-le-Grand", "coordinates": {"latitude": 48.848056, "longitude": 2.344528, "altitude": null, "precision": 2.7777777777778e-05, "globe": "http://www.wikidata.org/entity/Q2"}}}, "image": {"0": "16 Michel Serres librairie Dialogues 30 octobre 2014.JPG"}, "occupation": {"0": "philosopher", "1": "historian of science", "2": "university teacher", "3": "academic", "4": "romanist", "5": "historian"}, "employer": {"0": {"name": "Stanford University", "coordinates": {"latitude": 37.4275, "longitude": -122.17, "altitude": null, "precision": 0.0002777777777777778, "globe": "http://www.wikidata.org/entity/Q2"}}, "1": {"name": "University of Paris 1 Pantheon-Sorbonne", "coordinates": {"latitude": 48.848333, "longitude": 2.343056, "altitude": null, "precision": 1e-06, "globe": "http://www.wikidata.org/entity/Q2"}}}, "doctralStudent": {"0": "Marc Parmentier"}, "dateOfDeath": {"0": "+2019-06-01T00:00:00Z"}, "residence": {"0": {"name": "Vincennes", "coordinates": {"latitude": 48.847777777778, "longitude": 2.4391666666667, "altitude": null, "precision": 0.00027777777777778, "globe": "http://www.wikidata.org/entity/Q2"}}}, "fieldOfWork": {"0": "French studies", "1": "philosophy", "2": "philosophy and science", "3": "philosophy of science", "4": "history of science"}, "edges": {"influenced": {"0": {"id": "Q355237", "name": "Bruno Latour"}, "1": {"id": "Q184226", "name": "Gilles Deleuze"}}, "student": {"0": {"id": "Q46995879", "name": "Juliette Grange"}, "1": {"id": "Q2897345", "name": "Bernadette Bensaude-Vincent"}, "2": {"id": "Q3309693", "name": "Michel Feher"}, "3": {"id": "Q97982684", "name": "Jean-Marc Drouin"}}}}