{"id": "Q37388", "name": "Francis Bacon", "desc": "English philosopher and statesman (1561\u20131626)", "wiki_link": "https://en.wikipedia.org/wiki/Francis_Bacon", "movement": {"0": {"id": "Q83368", "name": "empiricism"}}, "occupation": {"0": {"id": "Q4964182", "name": "philosopher"}, "1": {"id": "Q36180", "name": "writer"}, "2": {"id": "Q16533", "name": "judge"}, "3": {"id": "Q82955", "name": "politician"}, "4": {"id": "Q40348", "name": "lawyer"}, "5": {"id": "Q155647", "name": "astrologer"}, "6": {"id": "Q901", "name": "scientist"}, "7": {"id": "Q201788", "name": "historian"}}, "placeOfBirth": {"0": {"id": "Q8055471", "name": "York House, Strand", "coordinates": {"latitude": 51.5081, "longitude": -0.123333, "altitude": null, "precision": 0.0001, "globe": "http://www.wikidata.org/entity/Q2"}}, "1": {"id": "Q84", "name": "London", "coordinates": {"latitude": 51.507222222222, "longitude": -0.1275, "altitude": null, "precision": 0.00027777777777778, "globe": "http://www.wikidata.org/entity/Q2"}}}, "placeOfDeath": {"0": {"id": "Q123947", "name": "Highgate", "coordinates": {"latitude": 51.5716, "longitude": -0.1448, "altitude": null, "precision": 0.00027777777777778, "globe": "http://www.wikidata.org/entity/Q2"}}, "1": {"id": "Q84", "name": "London", "coordinates": {"latitude": 51.507222222222, "longitude": -0.1275, "altitude": null, "precision": 0.00027777777777778, "globe": "http://www.wikidata.org/entity/Q2"}}}, "dateOfBirth": {"0": "+1561-01-22T00:00:00Z", "1": "+1561-01-01T00:00:00Z"}, "dateOfDeath": {"0": "+1626-04-09T00:00:00Z", "1": "+1626-01-01T00:00:00Z"}, "countryOfCitizenship": {"0": {"id": "Q179876", "name": "Kingdom of England", "coordinates": {"latitude": 52.066666666667, "longitude": -1.3166666666667, "altitude": null, "precision": 0.00027777777777778, "globe": "http://www.wikidata.org/entity/Q2"}}}, "educatedAt": {"0": {"id": "Q332342", "name": "Trinity College", "coordinates": {"latitude": 52.206944444444, "longitude": 0.11694444444444, "altitude": null, "precision": null, "globe": "http://www.wikidata.org/entity/Q2"}}, "1": {"id": "Q661056", "name": "University of Poitiers", "coordinates": {"latitude": 46.586111111111, "longitude": 0.34388888888889, "altitude": null, "precision": 0.00027777777777778, "globe": "http://www.wikidata.org/entity/Q2"}}}, "studentOf": {"0": {"id": "Q473302", "name": "John Whitgift"}}, "fieldOfWork": {"0": {"id": "Q5891", "name": "philosophy"}, "1": {"id": "Q901", "name": "scientist"}, "2": {"id": "Q4964182", "name": "philosopher"}, "3": {"id": "Q82955", "name": "politician"}, "4": {"id": "Q9471", "name": "epistemology"}, "5": {"id": "Q83368", "name": "empiricism"}, "6": {"id": "Q7163", "name": "politics"}, "7": {"id": "Q336", "name": "science"}, "8": {"id": "Q309", "name": "history"}}, "image": {"0": "Somer Francis Bacon.jpg"}, "notableWork": {"0": {"id": "Q1233830", "name": "New Atlantis"}, "1": {"id": "Q484511", "name": "inductive reasoning"}}, "edges": {"influenced": {"0": {"id": "Q37621", "name": "Thomas Hobbes", "similarity": 0.17135249078273773}, "1": {"id": "Q35802", "name": "Benedictus de Spinoza", "similarity": 0.10694317519664764}}}, "priority": 0.717948717948718}