{"id": "Q373036", "name": "Claude Lefort", "desc": "French philosopher", "wiki_link": "https://en.wikipedia.org/wiki/Claude_Lefort", "occupation": {"0": {"id": "Q4964182", "name": "philosopher"}, "1": {"id": "Q36180", "name": "writer"}, "2": {"id": "Q28004591", "name": "professeur des universit\u00e9s"}}, "countryOfCitizenship": {"0": {"id": "Q142", "name": "France"}}, "dateOfBirth": {"0": "+1924-04-21T00:00:00Z"}, "dateOfDeath": {"0": "+2010-10-03T00:00:00Z"}, "employer": {"0": {"id": "Q273518", "name": "School for Advanced Studies in the Social Sciences", "coordinates": {"latitude": 48.83607, "longitude": 2.37205, "altitude": null, "precision": 1e-06, "globe": "http://www.wikidata.org/entity/Q2"}}, "1": {"id": "Q568554", "name": "University of Caen Normandy", "coordinates": {"latitude": 49.190555555556, "longitude": -0.36444444444444, "altitude": null, "precision": null, "globe": "http://www.wikidata.org/entity/Q2"}}, "2": {"id": "Q835960", "name": "University of S\u00e3o Paulo", "coordinates": {"latitude": -23.5613991, "longitude": -46.7307891, "altitude": null, "precision": 1e-07, "globe": "http://www.wikidata.org/entity/Q2"}}}, "studentOf": {"0": {"id": "Q212639", "name": "Maurice Merleau-Ponty"}}, "educatedAt": {"0": {"id": "Q3268614", "name": "Lyc\u00e9e Carnot", "coordinates": {"latitude": 48.88388889, "longitude": 2.3075, "altitude": null, "precision": 0.00027777777777778, "globe": "http://www.wikidata.org/entity/Q2"}}, "1": {"id": "Q1878600", "name": "Lyc\u00e9e Henri-IV", "coordinates": {"latitude": 48.84583333, "longitude": 2.34777778, "altitude": null, "precision": 0.00027777777777778, "globe": "http://www.wikidata.org/entity/Q2"}}, "2": {"id": "Q999763", "name": "University of Paris 1 Pantheon-Sorbonne", "coordinates": {"latitude": 48.848333, "longitude": 2.343056, "altitude": null, "precision": 1e-06, "globe": "http://www.wikidata.org/entity/Q2"}}}, "doctralStudent": {"0": {"id": "Q2093915", "name": "Pierre Rosanvallon"}, "1": {"id": "Q3490420", "name": "Sonia Dayan-Herzbrun"}, "2": {"id": "Q3157584", "name": "Jacob Rogozinski"}, "3": {"id": "Q112478996", "name": "Fr\u00e9d\u00e9ric Pousin"}}, "edges": {"influenced": {"0": {"id": "Q3312923", "name": "Miguel Abensour"}}, "learnedFrom": {"0": {"id": "Q212639", "name": "Maurice Merleau-Ponty"}, "1": {"id": "Q160640", "name": "Raymond Aron"}}}, "priority": 0.7337278106508875}