{
	"id": "Q373036",
	"name": "Claude Lefort",
	"occupation": {
		"0": "philosopher",
		"1": "writer",
		"2": "professeur des universit\u00e9s"
	},
	"countryOfCitizenship": {
		"0": "France"
	},
	"dateOfBirth": {
		"0": "+1924-04-21T00:00:00Z"
	},
	"dateOfDeath": {
		"0": "+2010-10-03T00:00:00Z"
	},
	"employer": {
		"0": {
			"name": "School for Advanced Studies in the Social Sciences",
			"coordinates": {
				"latitude": 48.83607,
				"longitude": 2.37205,
				"altitude": null,
				"precision": 1e-06,
				"globe": "http://www.wikidata.org/entity/Q2"
			}
		},
		"1": {
			"name": "University of Caen Normandy",
			"coordinates": {
				"latitude": 49.190555555556,
				"longitude": -0.36444444444444,
				"altitude": null,
				"precision": null,
				"globe": "http://www.wikidata.org/entity/Q2"
			}
		},
		"2": {
			"name": "University of S\u00e3o Paulo",
			"coordinates": {
				"latitude": -23.5613991,
				"longitude": -46.7307891,
				"altitude": null,
				"precision": 1e-07,
				"globe": "http://www.wikidata.org/entity/Q2"
			}
		}
	},
	"educatedAt": {
		"0": {
			"name": "Lyc\u00e9e Carnot",
			"coordinates": {
				"latitude": 48.88388889,
				"longitude": 2.3075,
				"altitude": null,
				"precision": 0.00027777777777778,
				"globe": "http://www.wikidata.org/entity/Q2"
			}
		},
		"1": {
			"name": "Lyc\u00e9e Henri-IV",
			"coordinates": {
				"latitude": 48.84583333,
				"longitude": 2.34777778,
				"altitude": null,
				"precision": 0.00027777777777778,
				"globe": "http://www.wikidata.org/entity/Q2"
			}
		},
		"2": {
			"name": "University of Paris 1 Pantheon-Sorbonne",
			"coordinates": {
				"latitude": 48.848333,
				"longitude": 2.343056,
				"altitude": null,
				"precision": 1e-06,
				"globe": "http://www.wikidata.org/entity/Q2"
			}
		}
	},
	"doctralStudent": {
		"0": "Pierre Rosanvallon",
		"1": "Fr\u00e9d\u00e9ric Pousin"
	},
	"edges": {
		"influenced": {
			"0": {
				"id": "Q3592370",
				"name": "\u00c9tienne Tassin"
			},
			"1": {
				"id": "Q3312923",
				"name": "Miguel Abensour",
				"similarity": 0.5804652571678162
			}
		},
		"studentOf": {
			"0": {
				"id": "Q212639",
				"name": "Maurice Merleau-Ponty",
				"similarity": 0.4058851897716522
			},
			"1": {
				"id": "Q160640",
				"name": "Raymond Aron",
				"similarity": 0.38760367035865784
			}
		},
		"student": {
			"0": {
				"id": "Q3490420",
				"name": "Sonia Dayan-Herzbrun"
			},
			"1": {
				"id": "Q3157584",
				"name": "Jacob Rogozinski"
			}
		}
	}
}