{"id": "Q41476", "name": "Hans Driesch", "occupation": {"0": "biologist", "1": "zoologist", "2": "philosopher", "3": "university teacher"}, "dateOfBirth": {"0": "+1867-10-28T00:00:00Z"}, "dateOfDeath": {"0": "+1941-04-16T00:00:00Z"}, "image": {"0": "Driesch1.jpg"}, "employer": {"0": {"name": "Leipzig University", "coordinates": {"latitude": 51.3387, "longitude": 12.378727777777778, "altitude": null, "precision": 2.777777777777778e-06, "globe": "http://www.wikidata.org/entity/Q2"}}, "1": {"name": "Heidelberg University", "coordinates": {"latitude": 49.410277777778, "longitude": 8.7063888888889, "altitude": null, "precision": 0.000277778, "globe": "http://www.wikidata.org/entity/Q2"}}, "2": {"name": "University of Cologne", "coordinates": {"latitude": 50.928055555556, "longitude": 6.9286111111111, "altitude": null, "precision": null, "globe": "http://www.wikidata.org/entity/Q2"}}}, "countryOfCitizenship": {"0": "German Empire", "1": "Weimar Republic", "2": "Nazi Germany"}, "fieldOfWork": {"0": "biology", "1": "embryology"}, "educatedAt": {"0": {"name": "University of Jena", "coordinates": {"latitude": 50.928333333333, "longitude": 11.582222222222, "altitude": null, "precision": null, "globe": "http://www.wikidata.org/entity/Q2"}}, "1": {"name": "University of Freiburg", "coordinates": {"latitude": 47.994166666667, "longitude": 7.8469444444444, "altitude": null, "precision": null, "globe": "http://www.wikidata.org/entity/Q2"}}, "2": {"name": "Gelehrtenschule des Johanneums", "coordinates": {"latitude": 53.58972222, "longitude": 10.00638889, "altitude": null, "precision": 0.00027777777777778, "globe": "http://www.wikidata.org/entity/Q2"}}}, "doctralStudent": {"0": "William Poch", "1": "Werner Schingnitz", "2": "Andreas Hecht"}}