{"id": "Q4467048", "name": "Anna-Teresa Tymieniecka", "dateOfDeath": {"0": "+2014-06-07T00:00:00Z"}, "dateOfBirth": {"0": "+1923-02-23T00:00:00Z"}, "image": {"0": "Prof.Anna-Teresa Tymieniecka.JPG"}, "countryOfCitizenship": {"0": "United States of America"}, "occupation": {"0": "philosopher", "1": "phenomenologist", "2": "university teacher"}, "educatedAt": {"0": {"name": "Jagiellonian University", "coordinates": {"latitude": 50.060833333333, "longitude": 19.932777777778, "altitude": null, "precision": 0.00027777777777778, "globe": "http://www.wikidata.org/entity/Q2"}}, "1": {"name": "Jan Matejko Academy of Fine Arts in Krakow", "coordinates": {"latitude": 50.066389, "longitude": 19.941667, "altitude": null, "precision": 0.00027777777777778, "globe": "http://www.wikidata.org/entity/Q2"}}, "2": {"name": "University of Fribourg", "coordinates": {"latitude": 46.80625, "longitude": 7.1517388888889, "altitude": null, "precision": 0.00027777777777778, "globe": "http://www.wikidata.org/entity/Q2"}}, "3": {"name": "University of Paris", "coordinates": {"latitude": 48.8486, "longitude": 2.34333, "altitude": null, "precision": 0.013651149849302, "globe": "http://www.wikidata.org/entity/Q2"}}}, "fieldOfWork": {"0": "philosophy", "1": "phenomenology"}, "employer": {"0": {"name": "Pennsylvania State University", "coordinates": {"latitude": 40.796111111111, "longitude": -77.862777777778, "altitude": null, "precision": 0.00027777777777778, "globe": "http://www.wikidata.org/entity/Q2"}}, "1": {"name": "Oregon State University", "coordinates": {"latitude": 44.56583333333333, "longitude": -123.27888888888889, "altitude": null, "precision": 0.0002777777777777778, "globe": "http://www.wikidata.org/entity/Q2"}}, "2": {"name": "St. John's University", "coordinates": {"latitude": 40.721944, "longitude": -73.795556, "altitude": null, "precision": 1e-06, "globe": "http://www.wikidata.org/entity/Q2"}}}}