{"id": "Q471041", "name": "Seyyed Hossein Nasr", "desc": "Iranian philosopher (born 1933)", "wiki_link": "https://en.wikipedia.org/wiki/Seyyed_Hossein_Nasr", "dateOfBirth": {"0": "+1933-04-07T00:00:00Z"}, "image": {"0": "Hossein nasr.jpg"}, "educatedAt": {"0": {"name": "Harvard University", "coordinates": {"latitude": 42.374443888889, "longitude": -71.116943888889, "altitude": null, "precision": 2.77778e-06, "globe": "http://www.wikidata.org/entity/Q2"}}, "1": {"name": "Massachusetts Institute of Technology", "coordinates": {"latitude": 42.359722222222224, "longitude": -71.09194444444445, "altitude": null, "precision": 0.0002777777777777778, "globe": "http://www.wikidata.org/entity/Q2"}}, "2": {"name": "Peddie School", "coordinates": {"latitude": 40.264, "longitude": -74.522, "altitude": null, "precision": 0.0001, "globe": "http://www.wikidata.org/entity/Q2"}}}, "countryOfCitizenship": {"0": "Iran"}, "occupation": {"0": "philosopher", "1": "university teacher", "2": "writer", "3": "international forum participant"}, "influencedBy": {"0": "Ahmad al-Alawi", "1": "Frithjof Schuon", "2": "Shihab al-Din Suhrawardi", "3": "Ren\u00e9 Gu\u00e9non", "4": "Avicenna", "5": "Ananda Coomaraswamy", "6": "Ibn Arabi", "7": "Titus Burckhardt", "8": "Mulla Sadra", "9": "Rumi"}, "employer": {"0": {"name": "Sharif University of Technology", "coordinates": {"latitude": 35.701797222222, "longitude": 51.351438888889, "altitude": null, "precision": null, "globe": "http://www.wikidata.org/entity/Q2"}}, "1": {"name": "University of Edinburgh", "coordinates": {"latitude": 55.94738888888889, "longitude": -3.1871944444444447, "altitude": null, "precision": 2.777777777777778e-05, "globe": "http://www.wikidata.org/entity/Q2"}}}, "edges": {"influencedBy": {"0": {"id": "Q46420", "name": "Ibn Arabi"}, "1": {"id": "Q123382", "name": "Frithjof Schuon"}, "2": {"id": "Q8011", "name": "Avicenna"}, "3": {"id": "Q2010955", "name": "Mulla Sadra"}, "4": {"id": "Q43347", "name": "Rumi"}}, "learnedFrom": {"0": {"id": "Q123382", "name": "Frithjof Schuon"}}}}