{"id": "Q49325", "name": "Albert Schweitzer", "desc": "French-German physician, theologian, musician, and philosopher", "wiki_link": "https://en.wikipedia.org/wiki/Albert_Schweitzer", "occupation": {"0": {"id": "Q1234713", "name": "theologian"}, "1": {"id": "Q4964182", "name": "philosopher"}, "2": {"id": "Q39631", "name": "physician"}, "3": {"id": "Q765778", "name": "organist"}, "4": {"id": "Q551835", "name": "physician writer"}, "5": {"id": "Q1622272", "name": "university teacher"}, "6": {"id": "Q14915627", "name": "musicologist"}, "7": {"id": "Q20198542", "name": "music historian"}, "8": {"id": "Q36834", "name": "composer"}, "9": {"id": "Q219477", "name": "missionary"}}, "countryOfCitizenship": {"0": {"id": "Q183", "name": "Germany", "coordinates": {"latitude": 51, "longitude": 10, "altitude": null, "precision": 1, "globe": "http://www.wikidata.org/entity/Q2"}}, "1": {"id": "Q142", "name": "France", "coordinates": {"latitude": 47, "longitude": 2, "altitude": null, "precision": 1, "globe": "http://www.wikidata.org/entity/Q2"}}}, "placeOfDeath": {"0": {"id": "Q874197", "name": "Lambar\u00e9n\u00e9", "coordinates": {"latitude": -0.68833333333333, "longitude": 10.231944444444, "altitude": null, "precision": 0.00027777777777778, "globe": "http://www.wikidata.org/entity/Q2"}}}, "dateOfBirth": {"0": "+1875-01-14T00:00:00Z"}, "dateOfDeath": {"0": "+1965-09-04T00:00:00Z"}, "placeOfBirth": {"0": {"id": "Q83485", "name": "Kaysersberg", "coordinates": {"latitude": 48.139166666667, "longitude": 7.2608333333333, "altitude": null, "precision": 0.00027777777777778, "globe": "http://www.wikidata.org/entity/Q2"}}}, "image": {"0": "\u00c9mile Schneider, Portrait d'Albert Schweitzer.jpg", "1": "Portrait of Albert Schweitzer LCCN2003667269.jpg", "2": "Bundesarchiv Bild 183-D0116-0041-019, Albert Schweitzer.jpg"}, "educatedAt": {"0": {"id": "Q157575", "name": "University of Strasbourg", "coordinates": {"latitude": 48.580277777778, "longitude": 7.7644444444444, "altitude": null, "precision": null, "globe": "http://www.wikidata.org/entity/Q2"}}, "1": {"id": "Q153978", "name": "University of T\u00fcbingen", "coordinates": {"latitude": 48.525, "longitude": 9.059, "altitude": null, "precision": null, "globe": "http://www.wikidata.org/entity/Q2"}}, "2": {"id": "Q102398072", "name": "College of Philosophy of the Prague German University", "coordinates": ""}}, "fieldOfWork": {"0": {"id": "Q5891", "name": "philosophy"}}, "employer": {"0": {"id": "Q157575", "name": "University of Strasbourg", "coordinates": {"latitude": 48.580277777778, "longitude": 7.7644444444444, "altitude": null, "precision": null, "globe": "http://www.wikidata.org/entity/Q2"}}}, "residence": {"0": {"id": "Q6602", "name": "Strasbourg", "coordinates": {"latitude": 48.573333333333, "longitude": 7.7522222222222, "altitude": null, "precision": 0.00027777777777778, "globe": "http://www.wikidata.org/entity/Q2"}}, "1": {"id": "Q392034", "name": "Gunsbach", "coordinates": {"latitude": 48.0475, "longitude": 7.1758333333333, "altitude": null, "precision": 0.00027777777777778, "globe": "http://www.wikidata.org/entity/Q2"}}, "2": {"id": "Q874197", "name": "Lambar\u00e9n\u00e9", "coordinates": {"latitude": -0.68833333333333, "longitude": 10.231944444444, "altitude": null, "precision": 0.00027777777777778, "globe": "http://www.wikidata.org/entity/Q2"}}}, "influencedBy": {"0": {"id": "Q706888", "name": "Hermann Samuel Reimarus"}}, "notableWork": {"0": {"id": "Q7759060", "name": "The Quest of the Historical Jesus"}}, "priority": 0.2510822510822511}