{"id": "Q5515822", "name": "Gabriel Rockhill", "educatedAt": {"0": {"name": "Emory University", "coordinates": {"latitude": 33.791111111111, "longitude": -84.323333333333, "altitude": null, "precision": null, "globe": "http://www.wikidata.org/entity/Q2"}}, "1": {"name": "Paris 8 University", "coordinates": {"latitude": 48.944722222222, "longitude": 2.3633333333333, "altitude": null, "precision": 0.00027777777777778, "globe": "http://www.wikidata.org/entity/Q2"}}, "2": {"name": "Grinnell College", "coordinates": {"latitude": 41.75087, "longitude": -92.719768, "altitude": null, "precision": 1e-06, "globe": "http://www.wikidata.org/entity/Q2"}}, "3": {"name": "School for Advanced Studies in the Social Sciences", "coordinates": {"latitude": 48.83607, "longitude": 2.37205, "altitude": null, "precision": 1e-06, "globe": "http://www.wikidata.org/entity/Q2"}}}, "dateOfBirth": {"0": "+1972-00-00T00:00:00Z"}, "occupation": {"0": "philosopher", "1": "translator", "2": "university teacher"}, "employer": {"0": {"name": "Villanova University", "coordinates": {"latitude": 40.03771, "longitude": -75.33755, "altitude": null, "precision": 0.00027777777777778, "globe": "http://www.wikidata.org/entity/Q2"}}, "1": {"name": "School for Advanced Studies in the Social Sciences", "coordinates": {"latitude": 48.83607, "longitude": 2.37205, "altitude": null, "precision": 1e-06, "globe": "http://www.wikidata.org/entity/Q2"}}}, "countryOfCitizenship": {"0": "United States of America"}, "edges": {"influencedBy": {"0": {"id": "Q467470", "name": "Jacques Ranci\u00e8re"}, "1": {"id": "Q158030", "name": "Cornelius Castoriadis"}, "2": {"id": "Q311005", "name": "Alain Badiou"}}, "studentOf": {"0": {"id": "Q311005", "name": "Alain Badiou"}}}}