{"id": "Q57188", "name": "Ernst Cassirer", "desc": "German philosopher", "wiki_link": "https://en.wikipedia.org/wiki/Ernst_Cassirer", "doctralStudent": {"0": {"id": "Q77144", "name": "Leo Strauss"}, "1": {"id": "Q102242190", "name": "Helene Luise Ewald"}}, "movement": {"0": {"id": "Q10576925", "name": "Marburg School"}}, "placeOfBirth": {"0": {"id": "Q1799", "name": "Wroc\u0142aw", "coordinates": {"latitude": 51.11, "longitude": 17.0325, "altitude": null, "precision": 0.0002777777777777778, "globe": "http://www.wikidata.org/entity/Q2"}}}, "placeOfDeath": {"0": {"id": "Q60", "name": "New York City", "coordinates": {"latitude": 40.7, "longitude": -74, "altitude": null, "precision": 0.11849025182330258, "globe": "http://www.wikidata.org/entity/Q2"}}}, "dateOfBirth": {"0": "+1874-05-28T00:00:00Z", "1": "+1874-07-28T00:00:00Z"}, "dateOfDeath": {"0": "+1945-04-13T00:00:00Z"}, "employer": {"0": {"id": "Q34433", "name": "University of Oxford", "coordinates": {"latitude": 51.755, "longitude": -1.255, "altitude": null, "precision": 0.0002777777777777778, "globe": "http://www.wikidata.org/entity/Q2"}}, "1": {"id": "Q81092", "name": "All Souls College", "coordinates": {"latitude": 51.753277777778, "longitude": -1.2530416666667, "altitude": null, "precision": 2.7777777777778e-06, "globe": "http://www.wikidata.org/entity/Q2"}}, "2": {"id": "Q15714418", "name": "War Press Office (German Reich)", "coordinates": ""}, "3": {"id": "Q156725", "name": "University of Hamburg", "coordinates": {"latitude": 53.56565129687832, "longitude": 9.984776342438971, "altitude": null, "precision": 1e-08, "globe": "http://www.wikidata.org/entity/Q2"}}, "4": {"id": "Q49112", "name": "Yale University", "coordinates": {"latitude": 41.311111111111, "longitude": -72.926666666667, "altitude": null, "precision": null, "globe": "http://www.wikidata.org/entity/Q2"}}, "5": {"id": "Q49088", "name": "Columbia University", "coordinates": {"latitude": 40.8075, "longitude": -73.961944444444, "altitude": null, "precision": 0.00027777777777778, "globe": "http://www.wikidata.org/entity/Q2"}}, "6": {"id": "Q371522", "name": "University of Gothenburg", "coordinates": {"latitude": 57.698333333333, "longitude": 11.971666666667, "altitude": null, "precision": null, "globe": "http://www.wikidata.org/entity/Q2"}}, "7": {"id": "Q152087", "name": "Humboldt University of Berlin", "coordinates": {"latitude": 52.518055555556, "longitude": 13.393333333333, "altitude": null, "precision": null, "globe": "http://www.wikidata.org/entity/Q2"}}}, "image": {"0": "ErnstCassirer.jpg"}, "occupation": {"0": {"id": "Q4964182", "name": "philosopher"}, "1": {"id": "Q1622272", "name": "university teacher"}, "2": {"id": "Q1792450", "name": "art historian"}}, "countryOfCitizenship": {"0": {"id": "Q43287", "name": "German Empire", "coordinates": {"latitude": 52.51861111111111, "longitude": 13.376111111111111, "altitude": null, "precision": 0.0002777777777777778, "globe": "http://www.wikidata.org/entity/Q2"}}, "1": {"id": "Q41304", "name": "Weimar Republic", "coordinates": {"latitude": 52.52, "longitude": 13.375, "altitude": null, "precision": 0.0002777777777777778, "globe": "http://www.wikidata.org/entity/Q2"}}, "2": {"id": "Q7318", "name": "Nazi Germany", "coordinates": {"latitude": 52.51111111111111, "longitude": 13.379722222222222, "altitude": null, "precision": 0.0002777777777777778, "globe": "http://www.wikidata.org/entity/Q2"}}, "3": {"id": "Q34", "name": "Sweden", "coordinates": {"latitude": 61, "longitude": 15, "altitude": null, "precision": 1, "globe": "http://www.wikidata.org/entity/Q2"}}}, "educatedAt": {"0": {"id": "Q152087", "name": "Humboldt University of Berlin", "coordinates": {"latitude": 52.518055555556, "longitude": 13.393333333333, "altitude": null, "precision": null, "globe": "http://www.wikidata.org/entity/Q2"}}, "1": {"id": "Q155354", "name": "University of Marburg", "coordinates": {"latitude": 50.810833333333, "longitude": 8.7736111111111, "altitude": null, "precision": null, "globe": "http://www.wikidata.org/entity/Q2"}}}, "priority": 0.2012987012987013}