{"id": "Q579194", "name": "John Major", "educatedAt": {"0": {"name": "Christ's College", "coordinates": {"latitude": 52.205398, "longitude": 0.122223, "altitude": null, "precision": null, "globe": "http://www.wikidata.org/entity/Q2"}}, "1": {"name": "University of Paris", "coordinates": {"latitude": 48.8486, "longitude": 2.34333, "altitude": null, "precision": 0.013651149849302, "globe": "http://www.wikidata.org/entity/Q2"}}, "2": {"name": "Coll\u00e8ge Sainte-Barbe", "coordinates": {"latitude": 48.847507, "longitude": 2.3466, "altitude": null, "precision": 2.77777777778e-06, "globe": "http://www.wikidata.org/entity/Q2"}}, "3": {"name": "Coll\u00e8ge de Montaigu", "coordinates": {"latitude": 48.8469, "longitude": 2.34639, "altitude": null, "precision": 0.013650686407501, "globe": "http://www.wikidata.org/entity/Q2"}}, "4": {"name": "grammar school", "coordinates": ""}}, "dateOfBirth": {"0": "+1467-01-01T00:00:00Z", "1": "+1469-01-01T00:00:00Z"}, "dateOfDeath": {"0": "+1550-01-01T00:00:00Z"}, "image": {"0": "John Mair.jpg"}, "countryOfCitizenship": {"0": "Scotland", "1": "United Kingdom"}, "occupation": {"0": "philosopher", "1": "historian", "2": "theologian"}, "studentOf": {"0": "Girolamo Aleandro"}, "employer": {"0": {"name": "University of Paris", "coordinates": {"latitude": 48.8486, "longitude": 2.34333, "altitude": null, "precision": 0.013651149849302, "globe": "http://www.wikidata.org/entity/Q2"}}, "1": {"name": "University of St Andrews", "coordinates": {"latitude": 56.341214, "longitude": -2.793011, "altitude": null, "precision": 1e-05, "globe": "http://www.wikidata.org/entity/Q2"}}}, "student": {"0": "Luis Coronel"}, "edges": {"student": {"0": {"id": "Q715169", "name": "George Buchanan"}, "1": {"id": "Q5698078", "name": "Antonio Coronel"}, "2": {"id": "Q1495249", "name": "Gaspar Lax"}, "3": {"id": "Q2239003", "name": "Peter Crockaert"}, "4": {"id": "Q55597400", "name": "Jean Dullaert"}}, "studentOf": {"0": {"id": "Q21243169", "name": "Thomas Bricot"}, "1": {"id": "Q716415", "name": "Jan Standonck"}, "2": {"id": "Q55663188", "name": "Jer\u00f3nimo Pardo"}}, "influencedBy": {"0": {"id": "Q868", "name": "Aristotle"}, "1": {"id": "Q43499", "name": "Erasmus"}, "2": {"id": "Q716415", "name": "Jan Standonck"}}, "influenced": {"0": {"id": "Q2239003", "name": "Peter Crockaert"}}}}