{"id": "Q60025", "name": "Hannah Arendt", "desc": "German-American political theorist and philosopher (1906\u20131975)", "wiki_link": "https://en.wikipedia.org/wiki/Hannah_Arendt", "countryOfCitizenship": {"0": "Germany", "1": "United States of America"}, "dateOfBirth": {"0": "+1906-10-14T00:00:00Z"}, "dateOfDeath": {"0": "+1975-12-04T00:00:00Z"}, "occupation": {"0": "philosopher", "1": "historian", "2": "writer", "3": "political scientist", "4": "essayist", "5": "university teacher", "6": "sociologist", "7": "political theorist", "8": "author"}, "employer": {"0": {"name": "Princeton University", "coordinates": {"latitude": 40.345277777778, "longitude": -74.656111111111, "altitude": null, "precision": 0.00027777777777778, "globe": "http://www.wikidata.org/entity/Q2"}}, "1": {"name": "Northwestern University", "coordinates": {"latitude": 42.054853, "longitude": -87.673945, "altitude": null, "precision": null, "globe": "http://www.wikidata.org/entity/Q2"}}, "2": {"name": "Wesleyan University", "coordinates": {"latitude": 41.55562, "longitude": -72.655844, "altitude": null, "precision": 0.00027777777777778, "globe": "http://www.wikidata.org/entity/Q2"}}, "3": {"name": "University of California, Berkeley", "coordinates": {"latitude": 37.87, "longitude": -122.259, "altitude": null, "precision": 0.00027777777777778, "globe": "http://www.wikidata.org/entity/Q2"}}, "4": {"name": "University of Chicago", "coordinates": {"latitude": 41.789722222222, "longitude": -87.599722222222, "altitude": null, "precision": 0.00027777777777778, "globe": "http://www.wikidata.org/entity/Q2"}}, "5": {"name": "Yale University", "coordinates": {"latitude": 41.311111111111, "longitude": -72.926666666667, "altitude": null, "precision": null, "globe": "http://www.wikidata.org/entity/Q2"}}, "6": {"name": "Columbia University", "coordinates": {"latitude": 40.8075, "longitude": -73.961944444444, "altitude": null, "precision": 0.00027777777777778, "globe": "http://www.wikidata.org/entity/Q2"}}, "7": {"name": "The New Yorker", "coordinates": ""}, "8": {"name": "Brooklyn College", "coordinates": {"latitude": 40.631111111111, "longitude": -73.9525, "altitude": null, "precision": null, "globe": "http://www.wikidata.org/entity/Q2"}}}, "educatedAt": {"0": {"name": "Heidelberg University", "coordinates": {"latitude": 49.410277777778, "longitude": 8.7063888888889, "altitude": null, "precision": 0.000277778, "globe": "http://www.wikidata.org/entity/Q2"}}, "1": {"name": "University of Freiburg", "coordinates": {"latitude": 47.994166666667, "longitude": 7.8469444444444, "altitude": null, "precision": null, "globe": "http://www.wikidata.org/entity/Q2"}}, "2": {"name": "University of Marburg", "coordinates": {"latitude": 50.810833333333, "longitude": 8.7736111111111, "altitude": null, "precision": null, "globe": "http://www.wikidata.org/entity/Q2"}}}, "influencedBy": {"0": "Edmund Husserl", "1": "Karl Jaspers", "2": "Martin Heidegger", "3": "Edmund Burke", "4": "G. K. Chesterton", "5": "Montesquieu", "6": "Alexis de Tocqueville", "7": "Walter Benjamin", "8": "Hans Jonas", "9": "Jesus", "10": "Duns Scotus", "11": "Niccol\u00f2 Machiavelli", "12": "Plato", "13": "Karl Marx", "14": "Socrates", "15": "Franz Kafka", "16": "Augustine of Hippo", "17": "Carl Schmitt", "18": "Paul the Apostle", "19": "Immanuel Kant", "20": "Aristotle", "21": "S\u00f8ren Kierkegaard"}, "studentOf": {"0": "Martin Heidegger", "1": "Karl Jaspers"}, "residence": {"0": {"name": "Hanover", "coordinates": {"latitude": 52.374444444444, "longitude": 9.7386111111111, "altitude": null, "precision": 0.00027777777777778, "globe": "http://www.wikidata.org/entity/Q2"}}, "1": {"name": "New York City", "coordinates": {"latitude": 40.7, "longitude": -74, "altitude": null, "precision": 0.11849025182330258, "globe": "http://www.wikidata.org/entity/Q2"}}, "2": {"name": "Marburg", "coordinates": {"latitude": 50.816666666667, "longitude": 8.7666666666667, "altitude": null, "precision": 0.00027777777777778, "globe": "http://www.wikidata.org/entity/Q2"}}, "3": {"name": "Heidelberg", "coordinates": {"latitude": 49.412222222222, "longitude": 8.71, "altitude": null, "precision": 0.00027777777777778, "globe": "http://www.wikidata.org/entity/Q2"}}}, "notableWork": {"0": "The Origins of Totalitarianism", "1": "The Human Condition", "2": "Eichmann in Jerusalem", "3": "On Revolution", "4": "Rahel Varnhagen", "5": "Natality"}, "fieldOfWork": {"0": "political philosophy", "1": "contemporary philosophy"}, "doctralStudent": {"0": "Elisabeth Young-Bruehl"}, "image": {"0": "Hannah Arendt 1975 (cropped).jpg", "1": "Hannah Arendt auf dem 1. Kulturkritikerkongress, Barbara Niggl Radloff, FM-2019-1-5-9-16 (cropped).jpg"}, "movement": {"0": "phenomenology"}, "edges": {"influencedBy": {"0": {"id": "Q140694", "name": "Alexis de Tocqueville"}, "1": {"id": "Q859", "name": "Plato"}, "2": {"id": "Q77148", "name": "Carl Schmitt"}, "3": {"id": "Q9312", "name": "Immanuel Kant"}, "4": {"id": "Q61078", "name": "Walter Benjamin"}, "5": {"id": "Q868", "name": "Aristotle"}, "6": {"id": "Q183167", "name": "G. K. Chesterton"}, "7": {"id": "Q190089", "name": "Duns Scotus"}, "8": {"id": "Q913", "name": "Socrates"}, "9": {"id": "Q8018", "name": "Augustine of Hippo"}, "10": {"id": "Q9061", "name": "Karl Marx"}, "11": {"id": "Q58586", "name": "Edmund Husserl"}, "12": {"id": "Q165792", "name": "Edmund Burke"}, "13": {"id": "Q48301", "name": "Martin Heidegger"}}, "influenced": {"0": {"id": "Q3312923", "name": "Miguel Abensour"}}, "learnedFrom": {"0": {"id": "Q48301", "name": "Martin Heidegger"}}}}