{"id": "Q60080", "name": "Wilhelm Dilthey", "countryOfCitizenship": {"0": "Kingdom of Prussia"}, "dateOfBirth": {"0": "+1833-11-19T00:00:00Z"}, "dateOfDeath": {"0": "+1911-10-01T00:00:00Z"}, "image": {"0": "Dilthey1-4.jpg"}, "occupation": {"0": "philosopher", "1": "historian", "2": "psychologist", "3": "theologian", "4": "pedagogue", "5": "sociologist", "6": "university teacher", "7": "literary critic", "8": "teacher"}, "employer": {"0": {"name": "University of Wroc\u0142aw", "coordinates": {"latitude": 51.113611111111, "longitude": 17.033333333333, "altitude": null, "precision": null, "globe": "http://www.wikidata.org/entity/Q2"}}, "1": {"name": "University of Basel", "coordinates": {"latitude": 47.55852, "longitude": 7.58346, "altitude": null, "precision": 1e-05, "globe": "http://www.wikidata.org/entity/Q2"}}, "2": {"name": "Humboldt University of Berlin", "coordinates": {"latitude": 52.518055555556, "longitude": 13.393333333333, "altitude": null, "precision": null, "globe": "http://www.wikidata.org/entity/Q2"}}, "3": {"name": "University of Kiel", "coordinates": {"latitude": 54.338888888889, "longitude": 10.1225, "altitude": null, "precision": null, "globe": "http://www.wikidata.org/entity/Q2"}}}, "educatedAt": {"0": {"name": "Heidelberg University", "coordinates": {"latitude": 49.410277777778, "longitude": 8.7063888888889, "altitude": null, "precision": 0.000277778, "globe": "http://www.wikidata.org/entity/Q2"}}, "1": {"name": "Humboldt University of Berlin", "coordinates": {"latitude": 52.518055555556, "longitude": 13.393333333333, "altitude": null, "precision": null, "globe": "http://www.wikidata.org/entity/Q2"}}}, "fieldOfWork": {"0": "philosophy", "1": "intellectual history", "2": "understanding psychology"}, "doctralStudent": {"0": "Richard Hamann", "1": "Eberhard Gothein"}, "timePeriod": {"0": "contemporary philosophy"}, "movement": {"0": "Western philosophy"}, "edges": {"student": {"0": {"id": "Q704954", "name": "Leo Baeck"}, "1": {"id": "Q72897", "name": "Georg Misch"}}, "influencedBy": {"0": {"id": "Q9312", "name": "Immanuel Kant"}, "1": {"id": "Q76576", "name": "Friedrich Schleiermacher"}, "2": {"id": "Q9235", "name": "Georg Wilhelm Friedrich Hegel"}, "3": {"id": "Q50020", "name": "John Stuart Mill"}}, "influenced": {"0": {"id": "Q48301", "name": "Martin Heidegger"}, "1": {"id": "Q76356", "name": "Hans-Georg Gadamer"}, "2": {"id": "Q160640", "name": "Raymond Aron"}}}}