{"id": "Q60070", "name": "Friedrich Wilhelm Joseph Schelling", "desc": "German philosopher (1775\u20131854)", "wiki_link": "https://en.wikipedia.org/wiki/Friedrich_Wilhelm_Joseph_Schelling", "influencedBy": {"0": "Plato", "1": "Giordano Bruno", "2": "Jakob B\u00f6hme", "3": "Benedictus de Spinoza", "4": "Gottfried Wilhelm Leibniz", "5": "Immanuel Kant", "6": "Jean-Baptiste Robinet", "7": "Friedrich Heinrich Jacobi", "8": "Johann Gottfried Herder", "9": "Johann Wolfgang von Goethe", "10": "Friedrich H\u00f6lderlin", "11": "Johann Gottlieb Fichte"}, "movement": {"0": "German idealism"}, "educatedAt": {"0": {"name": "University of T\u00fcbingen", "coordinates": {"latitude": 48.525, "longitude": 9.059, "altitude": null, "precision": null, "globe": "http://www.wikidata.org/entity/Q2"}}, "1": {"name": "Leipzig University", "coordinates": {"latitude": 51.3387, "longitude": 12.378727777777778, "altitude": null, "precision": 2.777777777777778e-06, "globe": "http://www.wikidata.org/entity/Q2"}}, "2": {"name": "T\u00fcbinger Stift", "coordinates": {"latitude": 48.519444444444, "longitude": 9.0533333333333, "altitude": null, "precision": null, "globe": "http://www.wikidata.org/entity/Q2"}}}, "occupation": {"0": "philosopher", "1": "university teacher", "2": "writer"}, "fieldOfWork": {"0": "natural philosophy", "1": "natural science", "2": "aesthetics", "3": "metaphysics", "4": "epistemology"}, "countryOfCitizenship": {"0": "Kingdom of W\u00fcrttemberg"}, "dateOfBirth": {"0": "+1775-01-27T00:00:00Z"}, "dateOfDeath": {"0": "+1854-08-20T00:00:00Z"}, "image": {"0": "Friedrich Wilhelm Joseph Schelling, 1848 daguerreotype - cropped.jpg"}, "employer": {"0": {"name": "Ludwig Maximilian University of Munich", "coordinates": {"latitude": 48.150833333333, "longitude": 11.580277777778, "altitude": null, "precision": 0.00027777777777778, "globe": "http://www.wikidata.org/entity/Q2"}}, "1": {"name": "University of W\u00fcrzburg", "coordinates": {"latitude": 49.788055555556, "longitude": 9.9352777777778, "altitude": null, "precision": null, "globe": "http://www.wikidata.org/entity/Q2"}}, "2": {"name": "University of Jena", "coordinates": {"latitude": 50.928333333333, "longitude": 11.582222222222, "altitude": null, "precision": null, "globe": "http://www.wikidata.org/entity/Q2"}}, "3": {"name": "Humboldt University of Berlin", "coordinates": {"latitude": 52.518055555556, "longitude": 13.393333333333, "altitude": null, "precision": null, "globe": "http://www.wikidata.org/entity/Q2"}}, "4": {"name": "University of Erlangen\u2013Nuremberg", "coordinates": {"latitude": 49.600717498174966, "longitude": 11.004722360236146, "altitude": null, "precision": 1e-08, "globe": "http://www.wikidata.org/entity/Q2"}}}, "studentOf": {"0": "Johann Gottlieb Fichte", "1": "Ludwig Joseph Uhland", "2": "Gottlob Christian Storr", "3": "Johann Friedrich LeBret", "4": "Johann Friedrich Flatt", "5": "Christian Friedrich von Schnurrer"}, "doctralStudent": {"0": "Ludwig Wihl", "1": "Georg Wilhelm Friedrich Hegel"}, "student": {"0": "F\u00e9lix Ravaisson-Mollien", "1": "Johann Erich Berger"}, "timePeriod": {"0": "19th-century philosophy"}, "notableWork": {"0": "The Ages of the World"}, "edges": {"influencedBy": {"0": {"id": "Q9312", "name": "Immanuel Kant"}, "1": {"id": "Q9047", "name": "Gottfried Wilhelm Leibniz"}, "2": {"id": "Q5879", "name": "Johann Wolfgang von Goethe"}, "3": {"id": "Q35802", "name": "Benedictus de Spinoza"}, "4": {"id": "Q859", "name": "Plato"}, "5": {"id": "Q36330", "name": "Giordano Bruno"}, "6": {"id": "Q168004", "name": "Friedrich Heinrich Jacobi"}}, "influenced": {"0": {"id": "Q6694", "name": "Alexander von Humboldt"}, "1": {"id": "Q503017", "name": "Jean-Luc Nancy"}, "2": {"id": "Q9235", "name": "Georg Wilhelm Friedrich Hegel"}}, "taught": {"0": {"id": "Q9235", "name": "Georg Wilhelm Friedrich Hegel"}}}}