{"id": "Q60104", "name": "Paul Tillich", "desc": "German-American theologian and philosopher", "wiki_link": "https://en.wikipedia.org/wiki/Paul_Tillich", "occupation": {"0": {"id": "Q1234713", "name": "theologian"}, "1": {"id": "Q4964182", "name": "philosopher"}, "2": {"id": "Q1622272", "name": "university teacher"}}, "placeOfBirth": {"0": {"id": "Q150033", "name": "Starosiedle", "coordinates": {"latitude": 51.85782, "longitude": 14.82112, "altitude": null, "precision": 1e-05, "globe": "http://www.wikidata.org/entity/Q2"}}}, "placeOfDeath": {"0": {"id": "Q1297", "name": "Chicago", "coordinates": {"latitude": 41.85003, "longitude": -87.65005, "altitude": null, "precision": 1e-05, "globe": "http://www.wikidata.org/entity/Q2"}}}, "countryOfCitizenship": {"0": {"id": "Q43287", "name": "German Empire", "coordinates": {"latitude": 52.51861111111111, "longitude": 13.376111111111111, "altitude": null, "precision": 0.0002777777777777778, "globe": "http://www.wikidata.org/entity/Q2"}}, "1": {"id": "Q41304", "name": "Weimar Republic", "coordinates": {"latitude": 52.52, "longitude": 13.375, "altitude": null, "precision": 0.0002777777777777778, "globe": "http://www.wikidata.org/entity/Q2"}}, "2": {"id": "Q30", "name": "United States of America", "coordinates": {"latitude": 39.828175, "longitude": -98.5795, "altitude": null, "precision": 1e-06, "globe": "http://www.wikidata.org/entity/Q2"}}}, "dateOfBirth": {"0": "+1886-08-20T00:00:00Z"}, "dateOfDeath": {"0": "+1965-10-22T00:00:00Z"}, "employer": {"0": {"id": "Q13371", "name": "Harvard University", "coordinates": {"latitude": 42.374443888889, "longitude": -71.116943888889, "altitude": null, "precision": 2.77778e-06, "globe": "http://www.wikidata.org/entity/Q2"}}, "1": {"id": "Q50662", "name": "Goethe University Frankfurt", "coordinates": {"latitude": 50.12791, "longitude": 8.66944, "altitude": null, "precision": 1e-05, "globe": "http://www.wikidata.org/entity/Q2"}}, "2": {"id": "Q20266330", "name": "Frederick William University", "coordinates": {"latitude": 52.518056, "longitude": 13.393333, "altitude": null, "precision": 1e-06, "globe": "http://www.wikidata.org/entity/Q2"}}, "3": {"id": "Q1196251", "name": "Union Theological Seminary", "coordinates": {"latitude": 40.811389, "longitude": -73.964167, "altitude": null, "precision": -1e-07, "globe": "http://www.wikidata.org/entity/Q2"}}, "4": {"id": "Q131252", "name": "University of Chicago", "coordinates": {"latitude": 41.789722222222, "longitude": -87.599722222222, "altitude": null, "precision": 0.00027777777777778, "globe": "http://www.wikidata.org/entity/Q2"}}, "5": {"id": "Q152087", "name": "Humboldt University of Berlin", "coordinates": {"latitude": 52.518055555556, "longitude": 13.393333333333, "altitude": null, "precision": null, "globe": "http://www.wikidata.org/entity/Q2"}}}, "image": {"0": "Tillich Park Bust.jpg"}, "educatedAt": {"0": {"id": "Q152087", "name": "Humboldt University of Berlin", "coordinates": {"latitude": 52.518055555556, "longitude": 13.393333333333, "altitude": null, "precision": null, "globe": "http://www.wikidata.org/entity/Q2"}}, "1": {"id": "Q153978", "name": "University of T\u00fcbingen", "coordinates": {"latitude": 48.525, "longitude": 9.059, "altitude": null, "precision": null, "globe": "http://www.wikidata.org/entity/Q2"}}, "2": {"id": "Q315658", "name": "University of Wroc\u0142aw", "coordinates": {"latitude": 51.113611111111, "longitude": 17.033333333333, "altitude": null, "precision": null, "globe": "http://www.wikidata.org/entity/Q2"}}, "3": {"id": "Q32120", "name": "University of Halle-Wittenberg", "coordinates": {"latitude": 51.48638889, "longitude": 11.96888889, "altitude": null, "precision": 0.00027777777777778, "globe": "http://www.wikidata.org/entity/Q2"}}, "4": {"id": "Q1457922", "name": "Friedrich-Wilhelms-Gymnasium", "coordinates": {"latitude": 52.5057, "longitude": 13.3894, "altitude": null, "precision": 0.0001, "globe": "http://www.wikidata.org/entity/Q2"}}}, "fieldOfWork": {"0": {"id": "Q34178", "name": "theology"}}, "edges": {"influenced": {"0": {"id": "Q2318969", "name": "Peter Rollins", "similarity": 0.2843649089336395}, "1": {"id": "Q9358", "name": "Friedrich Nietzsche", "similarity": 0.1771146059036255}, "2": {"id": "Q358561", "name": "Reinhold Niebuhr", "similarity": 0.41719844937324524}}}, "priority": 0.7489177489177489}