{
	"id": "Q60104",
	"name": "Paul Tillich",
	"occupation": {
		"0": "theologian",
		"1": "philosopher",
		"2": "university teacher"
	},
	"countryOfCitizenship": {
		"0": "German Empire",
		"1": "Weimar Republic",
		"2": "United States of America"
	},
	"dateOfBirth": {
		"0": "+1886-08-20T00:00:00Z"
	},
	"dateOfDeath": {
		"0": "+1965-10-22T00:00:00Z"
	},
	"employer": {
		"0": {
			"name": "Harvard University",
			"coordinates": {
				"latitude": 42.374443888889,
				"longitude": -71.116943888889,
				"altitude": null,
				"precision": 2.77778e-06,
				"globe": "http://www.wikidata.org/entity/Q2"
			}
		},
		"1": {
			"name": "Goethe University Frankfurt",
			"coordinates": {
				"latitude": 50.12791,
				"longitude": 8.66944,
				"altitude": null,
				"precision": 1e-05,
				"globe": "http://www.wikidata.org/entity/Q2"
			}
		},
		"2": {
			"name": "Frederick William University",
			"coordinates": {
				"latitude": 52.518056,
				"longitude": 13.393333,
				"altitude": null,
				"precision": 1e-06,
				"globe": "http://www.wikidata.org/entity/Q2"
			}
		},
		"3": {
			"name": "Union Theological Seminary",
			"coordinates": {
				"latitude": 40.811389,
				"longitude": -73.964167,
				"altitude": null,
				"precision": -1e-07,
				"globe": "http://www.wikidata.org/entity/Q2"
			}
		},
		"4": {
			"name": "University of Chicago",
			"coordinates": {
				"latitude": 41.789722222222,
				"longitude": -87.599722222222,
				"altitude": null,
				"precision": 0.00027777777777778,
				"globe": "http://www.wikidata.org/entity/Q2"
			}
		},
		"5": {
			"name": "Humboldt University of Berlin",
			"coordinates": {
				"latitude": 52.518055555556,
				"longitude": 13.393333333333,
				"altitude": null,
				"precision": null,
				"globe": "http://www.wikidata.org/entity/Q2"
			}
		}
	},
	"image": {
		"0": "Tillich Park Bust.jpg"
	},
	"educatedAt": {
		"0": {
			"name": "Humboldt University of Berlin",
			"coordinates": {
				"latitude": 52.518055555556,
				"longitude": 13.393333333333,
				"altitude": null,
				"precision": null,
				"globe": "http://www.wikidata.org/entity/Q2"
			}
		},
		"1": {
			"name": "University of T\u00fcbingen",
			"coordinates": {
				"latitude": 48.525,
				"longitude": 9.059,
				"altitude": null,
				"precision": null,
				"globe": "http://www.wikidata.org/entity/Q2"
			}
		},
		"2": {
			"name": "University of Wroc\u0142aw",
			"coordinates": {
				"latitude": 51.113611111111,
				"longitude": 17.033333333333,
				"altitude": null,
				"precision": null,
				"globe": "http://www.wikidata.org/entity/Q2"
			}
		},
		"3": {
			"name": "University of Halle-Wittenberg",
			"coordinates": {
				"latitude": 51.48638889,
				"longitude": 11.96888889,
				"altitude": null,
				"precision": 0.00027777777777778,
				"globe": "http://www.wikidata.org/entity/Q2"
			}
		},
		"4": {
			"name": "Friedrich-Wilhelms-Gymnasium",
			"coordinates": {
				"latitude": 52.5057,
				"longitude": 13.3894,
				"altitude": null,
				"precision": 0.0001,
				"globe": "http://www.wikidata.org/entity/Q2"
			}
		}
	},
	"fieldOfWork": {
		"0": "theology"
	},
	"edges": {
		"influenced": {
			"0": {
				"id": "Q358561",
				"name": "Reinhold Niebuhr",
				"similarity": 0.42527255415916443
			},
			"1": {
				"id": "Q9358",
				"name": "Friedrich Nietzsche",
				"similarity": 0.1849682778120041
			},
			"2": {
				"id": "Q2318969",
				"name": "Peter Rollins",
				"similarity": 0.2694922387599945
			}
		}
	}
}