{"id": "Q60502", "name": "Gerhard Gentzen", "occupation": {"0": "mathematician", "1": "philosopher", "2": "pedagogue", "3": "university teacher", "4": "logician"}, "countryOfCitizenship": {"0": "German Empire", "1": "Weimar Republic", "2": "Nazi Germany"}, "dateOfBirth": {"0": "+1909-11-24T00:00:00Z"}, "dateOfDeath": {"0": "+1945-08-04T00:00:00Z"}, "image": {"0": "Gerhard Gentzen.jpg"}, "educatedAt": {"0": {"name": "University of G\u00f6ttingen", "coordinates": {"latitude": 51.533979833333, "longitude": 9.93792, "altitude": null, "precision": 2.7777777777778e-08, "globe": "http://www.wikidata.org/entity/Q2"}}, "1": {"name": "University of Greifswald", "coordinates": {"latitude": 54.094638888889, "longitude": 13.374625, "altitude": null, "precision": null, "globe": "http://www.wikidata.org/entity/Q2"}}, "2": {"name": "Ludwig Maximilian University of Munich", "coordinates": {"latitude": 48.150833333333, "longitude": 11.580277777778, "altitude": null, "precision": 0.00027777777777778, "globe": "http://www.wikidata.org/entity/Q2"}}, "3": {"name": "Frederick William University", "coordinates": {"latitude": 52.518056, "longitude": 13.393333, "altitude": null, "precision": 1e-06, "globe": "http://www.wikidata.org/entity/Q2"}}, "4": {"name": "University of G\u00f6ttingen", "coordinates": {"latitude": 51.533979833333, "longitude": 9.93792, "altitude": null, "precision": 2.7777777777778e-08, "globe": "http://www.wikidata.org/entity/Q2"}}}, "employer": {"0": {"name": "Charles University", "coordinates": {"latitude": 50.0884, "longitude": 14.4037, "altitude": null, "precision": 0.014001065638779498, "globe": "http://www.wikidata.org/entity/Q2"}}, "1": {"name": "University of G\u00f6ttingen", "coordinates": {"latitude": 51.533979833333, "longitude": 9.93792, "altitude": null, "precision": 2.7777777777778e-08, "globe": "http://www.wikidata.org/entity/Q2"}}, "2": {"name": "Wehrmacht", "coordinates": ""}}, "fieldOfWork": {"0": "mathematics", "1": "logic", "2": "mathematical logic", "3": "number theory", "4": "proof theory"}, "notableWork": {"0": "Gentzen's consistency proof"}, "edges": {"studentOf": {"0": {"id": "Q71029", "name": "Hermann Weyl"}, "1": {"id": "Q122318", "name": "Paul Bernays"}}}}