{"id": "Q6175878", "name": "Jeffrey Bub", "desc": "Physicist and philosopher of science", "wiki_link": "https://en.wikipedia.org/wiki/Jeffrey_Bub", "dateOfBirth": {"0": "+1942-01-01T00:00:00Z"}, "occupation": {"0": {"id": "Q169470", "name": "physicist"}, "1": {"id": "Q4964182", "name": "philosopher"}, "2": {"id": "Q1622272", "name": "university teacher"}, "3": {"id": "Q901", "name": "scientist"}}, "countryOfCitizenship": {"0": {"id": "Q258", "name": "South Africa"}, "1": {"id": "Q30", "name": "United States of America"}}, "educatedAt": {"0": {"id": "Q951305", "name": "University of Cape Town", "coordinates": {"latitude": -33.9575, "longitude": 18.460555555556, "altitude": null, "precision": null, "globe": "http://www.wikidata.org/entity/Q2"}}, "1": {"id": "Q170027", "name": "University of London", "coordinates": {"latitude": 51.521111111111, "longitude": -0.12888888888889, "altitude": null, "precision": null, "globe": "http://www.wikidata.org/entity/Q2"}}}, "employer": {"0": {"id": "Q503415", "name": "University of Maryland", "coordinates": {"latitude": 38.9875, "longitude": -76.94, "altitude": null, "precision": 1e-05, "globe": "http://www.wikidata.org/entity/Q2"}}, "1": {"id": "Q238101", "name": "University of Minnesota", "coordinates": {"latitude": 44.975, "longitude": -93.23527777777778, "altitude": null, "precision": 0.0002777777777777778, "globe": "http://www.wikidata.org/entity/Q2"}}, "2": {"id": "Q49112", "name": "Yale University", "coordinates": {"latitude": 41.311111111111, "longitude": -72.926666666667, "altitude": null, "precision": null, "globe": "http://www.wikidata.org/entity/Q2"}}, "3": {"id": "Q319239", "name": "Tel Aviv University", "coordinates": {"latitude": 32.1125, "longitude": 34.805, "altitude": null, "precision": 0.0002777777777777778, "globe": "http://www.wikidata.org/entity/Q2"}}, "4": {"id": "Q1144262", "name": "Western University", "coordinates": {"latitude": 43.009643504913065, "longitude": -81.27377651628304, "altitude": null, "precision": 1e-08, "globe": "http://www.wikidata.org/entity/Q2"}}}, "doctralStudent": {"0": {"id": "Q235451", "name": "Vandana Shiva"}, "1": {"id": "Q102235564", "name": "Malcolm R. Forster"}, "2": {"id": "Q6677426", "name": "Itamar Pitowsky"}}, "fieldOfWork": {"0": {"id": "Q156495", "name": "mathematical physics"}, "1": {"id": "Q1165883", "name": "philosophy of physics"}, "2": {"id": "Q1144457", "name": "quantum physics"}, "3": {"id": "Q3194786", "name": "quantum theory"}, "4": {"id": "Q2122216", "name": "quantum information science"}}, "edges": {"learnedFrom": {"0": {"id": "Q310765", "name": "David Bohm"}}}, "priority": 0.43984220907297833}