{"id": "Q61885", "name": "Carl Gustav Hempel", "countryOfCitizenship": {"0": "Germany", "1": "United States of America"}, "dateOfBirth": {"0": "+1905-01-08T00:00:00Z"}, "dateOfDeath": {"0": "+1997-11-09T00:00:00Z"}, "occupation": {"0": "mathematician", "1": "computer scientist", "2": "philosopher", "3": "essayist", "4": "university teacher", "5": "epistemologist"}, "employer": {"0": {"name": "Princeton University", "coordinates": {"latitude": 40.345277777778, "longitude": -74.656111111111, "altitude": null, "precision": 0.00027777777777778, "globe": "http://www.wikidata.org/entity/Q2"}}, "1": {"name": "Yale University", "coordinates": {"latitude": 41.311111111111, "longitude": -72.926666666667, "altitude": null, "precision": null, "globe": "http://www.wikidata.org/entity/Q2"}}, "2": {"name": "University of Pittsburgh", "coordinates": {"latitude": 40.444565, "longitude": -79.953274, "altitude": null, "precision": 0.00027777777777778, "globe": "http://www.wikidata.org/entity/Q2"}}, "3": {"name": "Humboldt University of Berlin", "coordinates": {"latitude": 52.518055555556, "longitude": 13.393333333333, "altitude": null, "precision": null, "globe": "http://www.wikidata.org/entity/Q2"}}, "4": {"name": "University of Chicago", "coordinates": {"latitude": 41.789722222222, "longitude": -87.599722222222, "altitude": null, "precision": 0.00027777777777778, "globe": "http://www.wikidata.org/entity/Q2"}}, "5": {"name": "Queens College", "coordinates": {"latitude": 40.737, "longitude": -73.817, "altitude": null, "precision": null, "globe": "http://www.wikidata.org/entity/Q2"}}}, "educatedAt": {"0": {"name": "University of G\u00f6ttingen", "coordinates": {"latitude": 51.533979833333, "longitude": 9.93792, "altitude": null, "precision": 2.7777777777778e-08, "globe": "http://www.wikidata.org/entity/Q2"}}, "1": {"name": "Heidelberg University", "coordinates": {"latitude": 49.410277777778, "longitude": 8.7063888888889, "altitude": null, "precision": 0.000277778, "globe": "http://www.wikidata.org/entity/Q2"}}, "2": {"name": "Humboldt University of Berlin", "coordinates": {"latitude": 52.518055555556, "longitude": 13.393333333333, "altitude": null, "precision": null, "globe": "http://www.wikidata.org/entity/Q2"}}}, "doctralStudent": {"0": "Gerald J. Massey"}, "notableWork": {"0": "Philosophy of Natural Science"}, "residence": {"0": {"name": "United States of America", "coordinates": {"latitude": 39.828175, "longitude": -98.5795, "altitude": null, "precision": 1e-06, "globe": "http://www.wikidata.org/entity/Q2"}}}, "edges": {"studentOf": {"0": {"id": "Q170147", "name": "Hans Reichenbach"}, "1": {"id": "Q213672", "name": "Wolfgang K\u00f6hler"}}, "influenced": {"0": {"id": "Q184980", "name": "Thomas Kuhn"}}, "student": {"0": {"id": "Q327981", "name": "John Alan Robinson"}, "1": {"id": "Q361974", "name": "Adolf Gr\u00fcnbaum"}, "2": {"id": "Q864260", "name": "John Earman"}, "3": {"id": "Q1809260", "name": "Lawrence Sklar"}, "4": {"id": "Q7326846", "name": "Richard Jeffrey"}}}}