{"id": "Q62830", "name": "Lujo Brentano", "countryOfCitizenship": {"0": "German Empire"}, "dateOfBirth": {"0": "+1844-12-18T00:00:00Z"}, "dateOfDeath": {"0": "+1931-09-09T00:00:00Z"}, "image": {"0": "Bundesarchiv Bild 146-1986-107-28A, Ludwig Joseph Brentano.jpg"}, "occupation": {"0": "economist", "1": "university teacher", "2": "philosopher", "3": "jurist"}, "employer": {"0": {"name": "University of Vienna", "coordinates": {"latitude": 48.213055555556, "longitude": 16.359722222222, "altitude": null, "precision": null, "globe": "http://www.wikidata.org/entity/Q2"}}, "1": {"name": "Ludwig Maximilian University of Munich", "coordinates": {"latitude": 48.150833333333, "longitude": 11.580277777778, "altitude": null, "precision": 0.00027777777777778, "globe": "http://www.wikidata.org/entity/Q2"}}, "2": {"name": "Leipzig University", "coordinates": {"latitude": 51.3387, "longitude": 12.378727777777778, "altitude": null, "precision": 2.777777777777778e-06, "globe": "http://www.wikidata.org/entity/Q2"}}, "3": {"name": "University of Wroc\u0142aw", "coordinates": {"latitude": 51.113611111111, "longitude": 17.033333333333, "altitude": null, "precision": null, "globe": "http://www.wikidata.org/entity/Q2"}}, "4": {"name": "Humboldt University of Berlin", "coordinates": {"latitude": 52.518055555556, "longitude": 13.393333333333, "altitude": null, "precision": null, "globe": "http://www.wikidata.org/entity/Q2"}}}, "educatedAt": {"0": {"name": "University of G\u00f6ttingen", "coordinates": {"latitude": 51.533979833333, "longitude": 9.93792, "altitude": null, "precision": 2.7777777777778e-08, "globe": "http://www.wikidata.org/entity/Q2"}}, "1": {"name": "Ludwig Maximilian University of Munich", "coordinates": {"latitude": 48.150833333333, "longitude": 11.580277777778, "altitude": null, "precision": 0.00027777777777778, "globe": "http://www.wikidata.org/entity/Q2"}}, "2": {"name": "Heidelberg University", "coordinates": {"latitude": 49.410277777778, "longitude": 8.7063888888889, "altitude": null, "precision": 0.000277778, "globe": "http://www.wikidata.org/entity/Q2"}}, "3": {"name": "Humboldt University of Berlin", "coordinates": {"latitude": 52.518055555556, "longitude": 13.393333333333, "altitude": null, "precision": null, "globe": "http://www.wikidata.org/entity/Q2"}}, "4": {"name": "University of W\u00fcrzburg", "coordinates": {"latitude": 49.788055555556, "longitude": 9.9352777777778, "altitude": null, "precision": null, "globe": "http://www.wikidata.org/entity/Q2"}}, "5": {"name": "University of M\u00fcnster", "coordinates": {"latitude": 51.964, "longitude": 7.613, "altitude": null, "precision": null, "globe": "http://www.wikidata.org/entity/Q2"}}}, "doctralStudent": {"0": "Emil Lederer", "1": "Moritz Julius Bonn", "2": "Paul Mombert", "3": "Heinrich Herkner", "4": "Heinrich Thomann", "5": "Karl Robert Albert Buddeus", "6": "August Eisentr\u00e4ger"}, "student": {"0": "Rudolf Meerwarth"}, "edges": {"student": {"0": {"id": "Q76515", "name": "Erich Rothacker"}}}}