{"id": "Q64686677", "name": "C\u00e9cile Renouard", "occupation": {"0": "nun", "1": "teacher", "2": "philosopher", "3": "economist"}, "countryOfCitizenship": {"0": "France"}, "dateOfBirth": {"0": "+1968-00-00T00:00:00Z"}, "educatedAt": {"0": {"name": "ESSEC Business School", "coordinates": {"latitude": 49.033055555556, "longitude": 2.0777777777778, "altitude": null, "precision": 0.00027777777777778, "globe": "http://www.wikidata.org/entity/Q2"}}, "1": {"name": "School for Advanced Studies in the Social Sciences", "coordinates": {"latitude": 48.83607, "longitude": 2.37205, "altitude": null, "precision": 1e-06, "globe": "http://www.wikidata.org/entity/Q2"}}, "2": {"name": "Centre S\u00e8vres", "coordinates": {"latitude": 48.850745, "longitude": 2.325701, "altitude": null, "precision": 2.77777777778e-06, "globe": "http://www.wikidata.org/entity/Q2"}}}, "employer": {"0": {"name": "Mines ParisTech", "coordinates": {"latitude": 48.845, "longitude": 2.339, "altitude": null, "precision": 0.001, "globe": "http://www.wikidata.org/entity/Q2"}}, "1": {"name": "Centre S\u00e8vres", "coordinates": {"latitude": 48.850745, "longitude": 2.325701, "altitude": null, "precision": 2.77777777778e-06, "globe": "http://www.wikidata.org/entity/Q2"}}, "2": {"name": "Sciences Po", "coordinates": {"latitude": 48.854166666667, "longitude": 2.3283333333333, "altitude": null, "precision": 0.00027777777777778, "globe": "http://www.wikidata.org/entity/Q2"}}}, "image": {"0": "Renouard-C\u00e9cile HL 2019-07-05 (6) - N&B.jpg"}, "doctralStudent": {"0": "Pierre-Louis Choquet"}}