{"id": "Q704954", "name": "Leo Baeck", "dateOfBirth": {"0": "+1873-05-23T00:00:00Z"}, "dateOfDeath": {"0": "+1956-11-02T00:00:00Z"}, "image": {"0": "Bust of Leo Baeck.jpg"}, "countryOfCitizenship": {"0": "Germany", "1": "United Kingdom"}, "occupation": {"0": "philosopher", "1": "educator", "2": "rabbi", "3": "university teacher", "4": "writer", "5": "rabbi", "6": "rabbi", "7": "military rabbi", "8": "theologian"}, "employer": {"0": {"name": "Hochschule f\u00fcr die Wissenschaft des Judentums", "coordinates": {"latitude": 52.524, "longitude": 13.3921, "altitude": null, "precision": 2.77777777778e-06, "globe": "http://www.wikidata.org/entity/Q2"}}, "1": {"name": "Zentralwohlfahrtsstelle der Juden in Deutschland", "coordinates": ""}, "2": {"name": "Allgemeiner Rabbiner-Verband in Deutschland", "coordinates": ""}, "3": {"name": "Reichsvertretung der Deutschen Juden", "coordinates": ""}, "4": {"name": "World Union for Progressive Judaism", "coordinates": ""}, "5": {"name": "Hebrew Union College \u2013 Jewish Institute of Religion \u2013 Cincinnati", "coordinates": {"latitude": 39.13839, "longitude": -84.520392, "altitude": null, "precision": 1e-06, "globe": "http://www.wikidata.org/entity/Q2"}}}, "educatedAt": {"0": {"name": "Jewish Theological Seminary of Breslau", "coordinates": ""}, "1": {"name": "University of Wroc\u0142aw", "coordinates": {"latitude": 51.113611111111, "longitude": 17.033333333333, "altitude": null, "precision": null, "globe": "http://www.wikidata.org/entity/Q2"}}, "2": {"name": "Hochschule f\u00fcr die Wissenschaft des Judentums", "coordinates": {"latitude": 52.524, "longitude": 13.3921, "altitude": null, "precision": 2.77777777778e-06, "globe": "http://www.wikidata.org/entity/Q2"}}, "3": {"name": "Frederick William University", "coordinates": {"latitude": 52.518056, "longitude": 13.393333, "altitude": null, "precision": 1e-06, "globe": "http://www.wikidata.org/entity/Q2"}}}, "residence": {"0": {"name": "Opole", "coordinates": {"latitude": 50.672222222222, "longitude": 17.925277777778, "altitude": null, "precision": 0.00027777777777778, "globe": "http://www.wikidata.org/entity/Q2"}}, "1": {"name": "D\u00fcsseldorf", "coordinates": {"latitude": 51.231144444444, "longitude": 6.7723805555556, "altitude": null, "precision": 2.7777777777778e-06, "globe": "http://www.wikidata.org/entity/Q2"}}, "2": {"name": "Berlin", "coordinates": {"latitude": 52.516666666667, "longitude": 13.383333333333, "altitude": null, "precision": 0.016666666666667, "globe": "http://www.wikidata.org/entity/Q2"}}, "3": {"name": "London", "coordinates": {"latitude": 51.507222222222, "longitude": -0.1275, "altitude": null, "precision": 0.00027777777777778, "globe": "http://www.wikidata.org/entity/Q2"}}, "4": {"name": "Duisburg", "coordinates": {"latitude": 51.432222222222, "longitude": 6.7611111111111, "altitude": null, "precision": 0.00027777777777778, "globe": "http://www.wikidata.org/entity/Q2"}}}, "edges": {"studentOf": {"0": {"id": "Q60080", "name": "Wilhelm Dilthey"}}}}