{"id": "Q7197", "name": "Simone de Beauvoir", "desc": "French philosopher, social theorist and activist (1908\u20131986)", "wiki_link": "https://en.wikipedia.org/wiki/Simone_de_Beauvoir", "placeOfBirth": {"0": {"id": "Q90", "name": "Paris", "coordinates": {"latitude": 48.85666666666667, "longitude": 2.352222222222222, "altitude": null, "precision": 0.0002777777777777778, "globe": "http://www.wikidata.org/entity/Q2"}}, "1": {"id": "Q245546", "name": "6th arrondissement of Paris", "coordinates": {"latitude": 48.850530555556, "longitude": 2.3322333333333, "altitude": null, "precision": 2.7777777777778e-06, "globe": "http://www.wikidata.org/entity/Q2"}}}, "occupation": {"0": {"id": "Q18930007", "name": "political philosopher"}, "1": {"id": "Q1930187", "name": "journalist"}, "2": {"id": "Q6625963", "name": "novelist"}, "3": {"id": "Q18814623", "name": "autobiographer"}, "4": {"id": "Q11774202", "name": "essayist"}, "5": {"id": "Q11499147", "name": "political activist"}, "6": {"id": "Q18939491", "name": "diarist"}, "7": {"id": "Q3589292", "name": "women letter writer"}, "8": {"id": "Q4964182", "name": "philosopher"}, "9": {"id": "Q4263842", "name": "literary critic"}, "10": {"id": "Q36180", "name": "writer"}, "11": {"id": "Q482980", "name": "author"}, "12": {"id": "Q34074720", "name": "feminist"}, "13": {"id": "Q48930480", "name": "philosophy teacher"}}, "countryOfCitizenship": {"0": {"id": "Q142", "name": "France", "coordinates": {"latitude": 47, "longitude": 2, "altitude": null, "precision": 1, "globe": "http://www.wikidata.org/entity/Q2"}}}, "placeOfDeath": {"0": {"id": "Q187153", "name": "14th arrondissement of Paris", "coordinates": {"latitude": 48.833022222222, "longitude": 2.3268888888889, "altitude": null, "precision": 2.7777777777778e-06, "globe": "http://www.wikidata.org/entity/Q2"}}, "1": {"id": "Q90", "name": "Paris", "coordinates": {"latitude": 48.85666666666667, "longitude": 2.352222222222222, "altitude": null, "precision": 0.0002777777777777778, "globe": "http://www.wikidata.org/entity/Q2"}}}, "dateOfBirth": {"0": "+1908-01-09T00:00:00Z"}, "dateOfDeath": {"0": "+1986-04-14T00:00:00Z"}, "educatedAt": {"0": {"id": "Q209842", "name": "University of Paris", "coordinates": {"latitude": 48.8486, "longitude": 2.34333, "altitude": null, "precision": 0.013651149849302, "globe": "http://www.wikidata.org/entity/Q2"}}, "1": {"id": "Q3268681", "name": "Lyc\u00e9e F\u00e9nelon, Paris", "coordinates": {"latitude": 48.85315278, "longitude": 2.34038333, "altitude": null, "precision": 2.77777777778e-06, "globe": "http://www.wikidata.org/entity/Q2"}}}, "movement": {"0": {"id": "Q7066", "name": "atheism"}, "1": {"id": "Q7252", "name": "feminism"}, "2": {"id": "Q38066", "name": "existentialism"}}, "notableWork": {"0": {"id": "Q1214721", "name": "The Mandarins"}, "1": {"id": "Q151578", "name": "When Things of the Spirit Come First"}, "2": {"id": "Q3411417", "name": "Pyrrhus and Cineas"}, "3": {"id": "Q470098", "name": "Le Deuxi\u00e8me Sexe"}, "4": {"id": "Q859773", "name": "She Came to Stay"}, "5": {"id": "Q968115", "name": "Force of Circumstance"}}, "influencedBy": {"0": {"id": "Q9364", "name": "Jean-Paul Sartre"}, "1": {"id": "Q152393", "name": "Alfred Adler"}}, "fieldOfWork": {"0": {"id": "Q5891", "name": "philosophy"}, "1": {"id": "Q35760", "name": "essay"}, "2": {"id": "Q4184", "name": "autobiography"}, "3": {"id": "Q8261", "name": "novel"}, "4": {"id": "Q7252", "name": "feminism"}, "5": {"id": "Q38066", "name": "existentialism"}}, "image": {"0": "Simone de Beauvoir2.png"}, "residence": {"0": {"id": "Q90", "name": "Paris", "coordinates": {"latitude": 48.85666666666667, "longitude": 2.352222222222222, "altitude": null, "precision": 0.0002777777777777778, "globe": "http://www.wikidata.org/entity/Q2"}}, "1": {"id": "Q23482", "name": "Marseille", "coordinates": {"latitude": 43.296666666667, "longitude": 5.3763888888889, "altitude": null, "precision": 0.00027777777777778, "globe": "http://www.wikidata.org/entity/Q2"}}, "2": {"id": "Q30974", "name": "Rouen", "coordinates": {"latitude": 49.443055555556, "longitude": 1.1025, "altitude": null, "precision": 0.00027777777777778, "globe": "http://www.wikidata.org/entity/Q2"}}}, "edges": {"influencedBy": {"0": {"id": "Q9364", "name": "Jean-Paul Sartre", "similarity": 0.48942187428474426}}, "influenced": {"0": {"id": "Q34670", "name": "Albert Camus", "similarity": 0.3850480616092682}}}, "priority": 0.621301775147929}