{
	"id": "Q7347121",
	"name": "Robert M. French",
	"educatedAt": {
		"0": {
			"name": "University of Michigan",
			"coordinates": {
				"latitude": 42.276944444444446,
				"longitude": -83.73805555555556,
				"altitude": null,
				"precision": 0.0002777777777777778,
				"globe": "http://www.wikidata.org/entity/Q2"
			}
		},
		"1": {
			"name": "Miami University",
			"coordinates": {
				"latitude": 39.511905,
				"longitude": -84.734674,
				"altitude": null,
				"precision": null,
				"globe": "http://www.wikidata.org/entity/Q2"
			}
		},
		"2": {
			"name": "Indiana University Bloomington",
			"coordinates": {
				"latitude": 39.167222,
				"longitude": -86.521389,
				"altitude": null,
				"precision": 2.77778e-05,
				"globe": "http://www.wikidata.org/entity/Q2"
			}
		}
	},
	"occupation": {
		"0": "cognitive scientist",
		"1": "computer scientist",
		"2": "university teacher"
	},
	"dateOfBirth": {
		"0": "+1951-01-01T00:00:00Z"
	},
	"employer": {
		"0": {
			"name": "National Center for Scientific Research",
			"coordinates": {
				"latitude": 48.8477,
				"longitude": 2.264,
				"altitude": null,
				"precision": 2.77777777778e-06,
				"globe": "http://www.wikidata.org/entity/Q2"
			}
		},
		"1": {
			"name": "University of Li\u00e8ge",
			"coordinates": {
				"latitude": 50.640833,
				"longitude": 5.574722,
				"altitude": null,
				"precision": 1e-05,
				"globe": "http://www.wikidata.org/entity/Q2"
			}
		},
		"2": {
			"name": "University of Wisconsin\u2013Madison",
			"coordinates": {
				"latitude": 43.07527778,
				"longitude": -89.40972222,
				"altitude": null,
				"precision": 0.00027777777777778,
				"globe": "http://www.wikidata.org/entity/Q2"
			}
		},
		"3": {
			"name": "Willamette University",
			"coordinates": {
				"latitude": 44.935823,
				"longitude": -123.031383,
				"altitude": null,
				"precision": 0.00027777777777778,
				"globe": "http://www.wikidata.org/entity/Q2"
			}
		},
		"4": {
			"name": "University of Michigan",
			"coordinates": {
				"latitude": 42.276944444444446,
				"longitude": -83.73805555555556,
				"altitude": null,
				"precision": 0.0002777777777777778,
				"globe": "http://www.wikidata.org/entity/Q2"
			}
		}
	},
	"fieldOfWork": {
		"0": "cognitive science",
		"1": "statistics",
		"2": "psychology",
		"3": "artificial intelligence"
	},
	"edges": {
		"studentOf": {
			"0": {
				"id": "Q319308",
				"name": "Douglas Hofstadter"
			}
		}
	}
}