{"id": "Q7347121", "name": "Robert M. French", "desc": "cognitive scientist", "wiki_link": "https://en.wikipedia.org/wiki/Robert_M._French", "educatedAt": {"0": {"id": "Q230492", "name": "University of Michigan", "coordinates": {"latitude": 42.276944444444446, "longitude": -83.73805555555556, "altitude": null, "precision": 0.0002777777777777778, "globe": "http://www.wikidata.org/entity/Q2"}}, "1": {"id": "Q590643", "name": "Miami University", "coordinates": {"latitude": 39.511905, "longitude": -84.734674, "altitude": null, "precision": null, "globe": "http://www.wikidata.org/entity/Q2"}}, "2": {"id": "Q1079140", "name": "Indiana University Bloomington", "coordinates": {"latitude": 39.167222, "longitude": -86.521389, "altitude": null, "precision": 2.77778e-05, "globe": "http://www.wikidata.org/entity/Q2"}}}, "occupation": {"0": {"id": "Q14565186", "name": "cognitive scientist"}, "1": {"id": "Q82594", "name": "computer scientist"}, "2": {"id": "Q1622272", "name": "university teacher"}}, "dateOfBirth": {"0": "+1951-01-01T00:00:00Z"}, "employer": {"0": {"id": "Q280413", "name": "National Center for Scientific Research", "coordinates": {"latitude": 48.8477, "longitude": 2.264, "altitude": null, "precision": 2.77777777778e-06, "globe": "http://www.wikidata.org/entity/Q2"}}, "1": {"id": "Q1334582", "name": "University of Li\u00e8ge", "coordinates": {"latitude": 50.640833, "longitude": 5.574722, "altitude": null, "precision": 1e-05, "globe": "http://www.wikidata.org/entity/Q2"}}, "2": {"id": "Q838330", "name": "University of Wisconsin\u2013Madison", "coordinates": {"latitude": 43.07527778, "longitude": -89.40972222, "altitude": null, "precision": 0.00027777777777778, "globe": "http://www.wikidata.org/entity/Q2"}}, "3": {"id": "Q930291", "name": "Willamette University", "coordinates": {"latitude": 44.935823, "longitude": -123.031383, "altitude": null, "precision": 0.00027777777777778, "globe": "http://www.wikidata.org/entity/Q2"}}, "4": {"id": "Q230492", "name": "University of Michigan", "coordinates": {"latitude": 42.276944444444446, "longitude": -83.73805555555556, "altitude": null, "precision": 0.0002777777777777778, "globe": "http://www.wikidata.org/entity/Q2"}}}, "fieldOfWork": {"0": {"id": "Q147638", "name": "cognitive science"}, "1": {"id": "Q12483", "name": "statistics"}, "2": {"id": "Q9418", "name": "psychology"}, "3": {"id": "Q11660", "name": "artificial intelligence"}}, "priority": 0.011834319526627219}