{"id": "Q75023", "name": "Benno Erdmann", "countryOfCitizenship": {"0": "Germany"}, "dateOfBirth": {"0": "+1851-05-30T00:00:00Z"}, "dateOfDeath": {"0": "+1921-01-07T00:00:00Z"}, "occupation": {"0": "philosopher", "1": "psychologist", "2": "university teacher"}, "employer": {"0": {"name": "University of Bonn", "coordinates": {"latitude": 50.733888888889, "longitude": 7.1022222222222, "altitude": null, "precision": null, "globe": "http://www.wikidata.org/entity/Q2"}}, "1": {"name": "University of Kiel", "coordinates": {"latitude": 54.338888888889, "longitude": 10.1225, "altitude": null, "precision": null, "globe": "http://www.wikidata.org/entity/Q2"}}, "2": {"name": "Humboldt University of Berlin", "coordinates": {"latitude": 52.518055555556, "longitude": 13.393333333333, "altitude": null, "precision": null, "globe": "http://www.wikidata.org/entity/Q2"}}, "3": {"name": "University of Wroc\u0142aw", "coordinates": {"latitude": 51.113611111111, "longitude": 17.033333333333, "altitude": null, "precision": null, "globe": "http://www.wikidata.org/entity/Q2"}}, "4": {"name": "University of Halle-Wittenberg", "coordinates": {"latitude": 51.48638889, "longitude": 11.96888889, "altitude": null, "precision": 0.00027777777777778, "globe": "http://www.wikidata.org/entity/Q2"}}}, "doctralStudent": {"0": "Raymond Dodge", "1": "Paul Gohlke"}, "image": {"0": "Professor Benno Erdmann 1906.jpg"}, "educatedAt": {"0": {"name": "Humboldt University of Berlin", "coordinates": {"latitude": 52.518055555556, "longitude": 13.393333333333, "altitude": null, "precision": null, "globe": "http://www.wikidata.org/entity/Q2"}}}, "edges": {"student": {"0": {"id": "Q76515", "name": "Erich Rothacker"}, "1": {"id": "Q1712202", "name": "Max Hildebert Boehm"}, "2": {"id": "Q2149770", "name": "Richard Herbertz"}, "3": {"id": "Q663485", "name": "James Rowland Angell"}, "4": {"id": "Q65784205", "name": "Johann Baptist Rieffert"}}, "studentOf": {"0": {"id": "Q77609", "name": "Hermann Bonitz"}}}}