{"id": "Q76356", "name": "Hans-Georg Gadamer", "notableWork": {"0": "Truth and Method"}, "countryOfCitizenship": {"0": "Germany"}, "dateOfBirth": {"0": "+1900-02-11T00:00:00Z"}, "dateOfDeath": {"0": "+2002-03-13T00:00:00Z"}, "occupation": {"0": "philosopher", "1": "university teacher"}, "employer": {"0": {"name": "Heidelberg University", "coordinates": {"latitude": 49.410277777778, "longitude": 8.7063888888889, "altitude": null, "precision": 0.000277778, "globe": "http://www.wikidata.org/entity/Q2"}}, "1": {"name": "Goethe University Frankfurt", "coordinates": {"latitude": 50.12791, "longitude": 8.66944, "altitude": null, "precision": 1e-05, "globe": "http://www.wikidata.org/entity/Q2"}}, "2": {"name": "University of Marburg", "coordinates": {"latitude": 50.810833333333, "longitude": 8.7736111111111, "altitude": null, "precision": null, "globe": "http://www.wikidata.org/entity/Q2"}}, "3": {"name": "Leipzig University", "coordinates": {"latitude": 51.3387, "longitude": 12.378727777777778, "altitude": null, "precision": 2.777777777777778e-06, "globe": "http://www.wikidata.org/entity/Q2"}}}, "educatedAt": {"0": {"name": "University of Wroc\u0142aw", "coordinates": {"latitude": 51.113611111111, "longitude": 17.033333333333, "altitude": null, "precision": null, "globe": "http://www.wikidata.org/entity/Q2"}}, "1": {"name": "University of Marburg", "coordinates": {"latitude": 50.810833333333, "longitude": 8.7736111111111, "altitude": null, "precision": null, "globe": "http://www.wikidata.org/entity/Q2"}}, "2": {"name": "University of Marburg", "coordinates": {"latitude": 50.810833333333, "longitude": 8.7736111111111, "altitude": null, "precision": null, "globe": "http://www.wikidata.org/entity/Q2"}}}, "image": {"0": "Hans-Georg Gadamer.jpg", "1": "Hans Gadamer.png"}, "fieldOfWork": {"0": "philosophy", "1": "aesthetics", "2": "ontology", "3": "epistemology", "4": "language"}, "residence": {"0": {"name": "Germany", "coordinates": {"latitude": 51, "longitude": 10, "altitude": null, "precision": 1, "globe": "http://www.wikidata.org/entity/Q2"}}}, "edges": {"influenced": {"0": {"id": "Q65987", "name": "Dieter Henrich"}, "1": {"id": "Q20970547", "name": "Santiago Zabala"}, "2": {"id": "Q5935914", "name": "Jorge Rivera Cruchaga"}}, "studentOf": {"0": {"id": "Q76504", "name": "Paul Natorp"}, "1": {"id": "Q48301", "name": "Martin Heidegger"}, "2": {"id": "Q214375", "name": "Richard H\u00f6nigswald"}, "3": {"id": "Q76501", "name": "Nicolai Hartmann"}}, "influencedBy": {"0": {"id": "Q48301", "name": "Martin Heidegger"}, "1": {"id": "Q859", "name": "Plato"}, "2": {"id": "Q868", "name": "Aristotle"}, "3": {"id": "Q9312", "name": "Immanuel Kant"}, "4": {"id": "Q9235", "name": "Georg Wilhelm Friedrich Hegel"}, "5": {"id": "Q6512", "name": "S\u00f8ren Kierkegaard"}, "6": {"id": "Q76576", "name": "Friedrich Schleiermacher"}, "7": {"id": "Q60080", "name": "Wilhelm Dilthey"}, "8": {"id": "Q58586", "name": "Edmund Husserl"}}, "student": {"0": {"id": "Q75149", "name": "R\u00fcdiger Bubner"}, "1": {"id": "Q5935914", "name": "Jorge Rivera Cruchaga"}, "2": {"id": "Q159648", "name": "Gianni Vattimo"}}}}