{"id": "Q76857", "name": "Franz Boas", "desc": "German-American anthropologist", "wiki_link": "https://en.wikipedia.org/wiki/Franz_Boas", "image": {"0": "FranzBoas.jpg"}, "countryOfCitizenship": {"0": "Kingdom of Prussia", "1": "United States of America", "2": "Germany", "3": "German Empire"}, "dateOfBirth": {"0": "+1858-07-09T00:00:00Z"}, "dateOfDeath": {"0": "+1942-12-21T00:00:00Z"}, "occupation": {"0": "anthropologist", "1": "linguist", "2": "university teacher", "3": "geographer", "4": "philosopher", "5": "curator", "6": "art historian"}, "educatedAt": {"0": {"name": "University of Bonn", "coordinates": {"latitude": 50.733888888889, "longitude": 7.1022222222222, "altitude": null, "precision": null, "globe": "http://www.wikidata.org/entity/Q2"}}, "1": {"name": "University of Kiel", "coordinates": {"latitude": 54.338888888889, "longitude": 10.1225, "altitude": null, "precision": null, "globe": "http://www.wikidata.org/entity/Q2"}}, "2": {"name": "Heidelberg University", "coordinates": {"latitude": 49.410277777778, "longitude": 8.7063888888889, "altitude": null, "precision": 0.000277778, "globe": "http://www.wikidata.org/entity/Q2"}}, "3": {"name": "University of Kiel", "coordinates": {"latitude": 54.338888888889, "longitude": 10.1225, "altitude": null, "precision": null, "globe": "http://www.wikidata.org/entity/Q2"}}}, "fieldOfWork": {"0": "anthropology"}, "studentOf": {"0": "Friedrich Ratzel", "1": "Theobald Fischer", "2": "Carl Ritter", "3": "Wilhelm Wundt"}, "notableWork": {"0": "The Mind of Primitive Man / Franz Boas"}, "employer": {"0": {"name": "Columbia University", "coordinates": {"latitude": 40.8075, "longitude": -73.961944444444, "altitude": null, "precision": 0.00027777777777778, "globe": "http://www.wikidata.org/entity/Q2"}}, "1": {"name": "Clark University", "coordinates": {"latitude": 42.250977, "longitude": -71.823169, "altitude": null, "precision": null, "globe": "http://www.wikidata.org/entity/Q2"}}, "2": {"name": "Smithsonian Institution", "coordinates": ""}, "3": {"name": "American Museum of Natural History", "coordinates": {"latitude": 40.780833333333334, "longitude": -73.97444444444444, "altitude": null, "precision": 0.0002777777777777778, "globe": "http://www.wikidata.org/entity/Q2"}}}, "student": {"0": "Ruth Benedict", "1": "Alexander Goldenweiser", "2": "Joseph Greenberg", "3": "Alfred L. Kroeber", "4": "Edward Sapir", "5": "Melville J. Herskovits", "6": "Frederica de Laguna", "7": "Robert Lowie"}, "doctralStudent": {"0": "Ruth Benedict", "1": "Edward Sapir", "2": "Alexander Francis Chamberlain", "3": "Manuel Gamio", "4": "Alexander Goldenweiser", "5": "Irving Goldman", "6": "Melville J. Herskovits", "7": "George Herzog", "8": "E. Adamson Hoebel", "9": "Melville Jacobs", "10": "William Jones", "11": "Alfred L. Kroeber", "12": "Alexander Lesser", "13": "Robert Lowie", "14": "Margaret Mead", "15": "Paul Radin", "16": "Gladys Reichard", "17": "Leslie Spier", "18": "Ruth Sawtell Wallis", "19": "Edward A. Kennard"}, "edges": {"learnedFrom": {"0": {"id": "Q75814", "name": "Wilhelm Wundt"}}, "taught": {"0": {"id": "Q191095", "name": "Edward Sapir"}}}}