{"id": "Q77148", "name": "Carl Schmitt", "desc": "German jurist, political theorist and professor of law (1888-1985)", "wiki_link": "https://en.wikipedia.org/wiki/Carl_Schmitt", "occupation": {"0": {"id": "Q185351", "name": "jurist"}, "1": {"id": "Q16947320", "name": "geopolitician"}, "2": {"id": "Q82955", "name": "politician"}}, "countryOfCitizenship": {"0": {"id": "Q183", "name": "Germany"}}, "dateOfBirth": {"0": "+1888-07-12T00:00:00Z"}, "dateOfDeath": {"0": "+1985-04-07T00:00:00Z"}, "employer": {"0": {"id": "Q157808", "name": "Technical University of Munich", "coordinates": {"latitude": 48.148055555556, "longitude": 11.568055555556, "altitude": null, "precision": null, "globe": "http://www.wikidata.org/entity/Q2"}}, "1": {"id": "Q152171", "name": "University of Bonn", "coordinates": {"latitude": 50.733888888889, "longitude": 7.1022222222222, "altitude": null, "precision": null, "globe": "http://www.wikidata.org/entity/Q2"}}, "2": {"id": "Q54096", "name": "University of Cologne", "coordinates": {"latitude": 50.928055555556, "longitude": 6.9286111111111, "altitude": null, "precision": null, "globe": "http://www.wikidata.org/entity/Q2"}}, "3": {"id": "Q165528", "name": "University of Greifswald", "coordinates": {"latitude": 54.094638888889, "longitude": 13.374625, "altitude": null, "precision": null, "globe": "http://www.wikidata.org/entity/Q2"}}, "4": {"id": "Q152087", "name": "Humboldt University of Berlin", "coordinates": {"latitude": 52.518055555556, "longitude": 13.393333333333, "altitude": null, "precision": null, "globe": "http://www.wikidata.org/entity/Q2"}}, "5": {"id": "Q1574858", "name": "Handelshochschule Berlin", "coordinates": {"latitude": 52.521, "longitude": 13.4029, "altitude": null, "precision": 0.001, "globe": "http://www.wikidata.org/entity/Q2"}}}, "educatedAt": {"0": {"id": "Q55044", "name": "Ludwig Maximilian University of Munich", "coordinates": {"latitude": 48.150833333333, "longitude": 11.580277777778, "altitude": null, "precision": 0.00027777777777778, "globe": "http://www.wikidata.org/entity/Q2"}}, "1": {"id": "Q20266894", "name": "University of Berlin", "coordinates": ""}, "2": {"id": "Q20808141", "name": "University of Strasbourg", "coordinates": ""}}, "notableWork": {"0": {"id": "Q7727278", "name": "The Concept of the Political"}, "1": {"id": "Q61830251", "name": "Land und Meer"}}, "movement": {"0": {"id": "Q1411984", "name": "Conservative Revolution"}, "1": {"id": "Q842333", "name": "Western philosophy"}}, "timePeriod": {"0": {"id": "Q943303", "name": "contemporary philosophy"}}, "fieldOfWork": {"0": {"id": "Q781421", "name": "political theology"}, "1": {"id": "Q11206", "name": "constitutional law"}}, "image": {"0": "Carl Schmitt 1904 Schulklasse.jpg"}, "edges": {"influenced": {"0": {"id": "Q21062238", "name": "Curtis Yarvin"}, "1": {"id": "Q438839", "name": "Aleksandr Dugin"}, "2": {"id": "Q60025", "name": "Hannah Arendt"}}}}