{"id": "Q78492", "name": "Tom\u00e1\u0161 Garrigue Masaryk", "countryOfCitizenship": {"0": "Czechoslovakia", "1": "Cisleithania"}, "dateOfBirth": {"0": "+1850-03-07T00:00:00Z"}, "dateOfDeath": {"0": "+1937-09-14T00:00:00Z"}, "educatedAt": {"0": {"name": "University of Vienna", "coordinates": {"latitude": 48.213055555556, "longitude": 16.359722222222, "altitude": null, "precision": null, "globe": "http://www.wikidata.org/entity/Q2"}}, "1": {"name": "Akademisches Gymnasium", "coordinates": {"latitude": 48.201416666667, "longitude": 16.3765, "altitude": null, "precision": 2.7777777777778e-05, "globe": "http://www.wikidata.org/entity/Q2"}}}, "occupation": {"0": "politician", "1": "philosopher", "2": "pedagogue", "3": "writer", "4": "sociologist", "5": "university teacher", "6": "journalist", "7": "teacher"}, "image": {"0": "MasarykFotoPrvniPoselstviTGM.jpg"}, "employer": {"0": {"name": "University of Vienna", "coordinates": {"latitude": 48.213055555556, "longitude": 16.359722222222, "altitude": null, "precision": null, "globe": "http://www.wikidata.org/entity/Q2"}}, "1": {"name": "Charles University", "coordinates": {"latitude": 50.0884, "longitude": 14.4037, "altitude": null, "precision": 0.014001065638779498, "globe": "http://www.wikidata.org/entity/Q2"}}, "2": {"name": "King's College London", "coordinates": {"latitude": 51.511944444444, "longitude": -0.11611111111111, "altitude": null, "precision": 0.00027777777777778, "globe": "http://www.wikidata.org/entity/Q2"}}}, "fieldOfWork": {"0": "politics", "1": "philosophy", "2": "sociology", "3": "journalism", "4": "educational system", "5": "literature"}, "residence": {"0": {"name": "Dom narodzin Tom\u00e1\u0161a Garrigu Masaryka", "coordinates": {"latitude": 48.8503628, "longitude": 17.1302336, "altitude": null, "precision": 1e-07, "globe": "http://www.wikidata.org/entity/Q2"}}}, "edges": {"studentOf": {"0": {"id": "Q57196", "name": "Franz Brentano"}}}}