{"id": "Q8005704", "name": "William Boone", "occupation": {"0": "mathematician", "1": "philosopher"}, "dateOfDeath": {"0": "+1983-09-14T00:00:00Z", "1": "+1983-00-00T00:00:00Z"}, "educatedAt": {"0": {"name": "Princeton University", "coordinates": {"latitude": 40.345277777778, "longitude": -74.656111111111, "altitude": null, "precision": 0.00027777777777778, "globe": "http://www.wikidata.org/entity/Q2"}}, "1": {"name": "University of Cincinnati", "coordinates": {"latitude": 39.132, "longitude": -84.5155, "altitude": null, "precision": 0.001, "globe": "http://www.wikidata.org/entity/Q2"}}}, "employer": {"0": {"name": "University of Illinois at Urbana\u2013Champaign", "coordinates": {"latitude": 40.110538888889, "longitude": -88.228411111111, "altitude": null, "precision": 2.7777777777778e-06, "globe": "http://www.wikidata.org/entity/Q2"}}, "1": {"name": "Princeton University", "coordinates": {"latitude": 40.345277777778, "longitude": -74.656111111111, "altitude": null, "precision": 0.00027777777777778, "globe": "http://www.wikidata.org/entity/Q2"}}, "2": {"name": "Rutgers University", "coordinates": {"latitude": 40.501666666667, "longitude": -74.448055555556, "altitude": null, "precision": 0.00027777777777778, "globe": "http://www.wikidata.org/entity/Q2"}}, "3": {"name": "The Catholic University of America", "coordinates": {"latitude": 38.93361111111111, "longitude": -76.99861111111112, "altitude": null, "precision": 0.0002777777777777778, "globe": "http://www.wikidata.org/entity/Q2"}}, "4": {"name": "Institute for Advanced Study", "coordinates": {"latitude": 40.331666666667, "longitude": -74.667777777778, "altitude": null, "precision": 0.00027777777777778, "globe": "http://www.wikidata.org/entity/Q2"}}}, "dateOfBirth": {"0": "+1920-01-16T00:00:00Z", "1": "+1920-00-00T00:00:00Z"}, "countryOfCitizenship": {"0": "United States of America"}, "fieldOfWork": {"0": "mathematical logic"}, "image": {"0": "William W. Boone and Eileen Boone at Altgeld Hall University of Illinois 1979-photo William J. Boone.JPG"}, "doctralStudent": {"0": "Eugene W. Madison", "1": "Ann Harris Ihrig Yasuhara", "2": "Wilson Eugene Singletary", "3": "Brian Henry Mayoh", "4": "Charles Frederick Miller, III", "5": "Dean Paul McCullough", "6": "Donald Hector Pelletier", "7": "George Steven Sacerdote", "8": "Vardeman G. Moore", "9": "Jody M. Lockhart"}, "notableWork": {"0": "word problem"}, "edges": {"studentOf": {"0": {"id": "Q92741", "name": "Alonzo Church"}}}}