{"id": "Q89289487", "name": "Nicolas Delon", "employer": {"0": {"name": "New College of Florida", "coordinates": {"latitude": 27.38359, "longitude": -82.560046, "altitude": null, "precision": 2.77777777778e-06, "globe": "http://www.wikidata.org/entity/Q2"}}, "1": {"name": "University of Chicago Law School", "coordinates": ""}, "2": {"name": "New York University", "coordinates": {"latitude": 40.73, "longitude": -73.995, "altitude": null, "precision": 0.00027777777777778, "globe": "http://www.wikidata.org/entity/Q2"}}, "3": {"name": "Aix-Marseille University", "coordinates": {"latitude": 43.293522222222, "longitude": 5.3579166666667, "altitude": null, "precision": 2.7777777777778e-06, "globe": "http://www.wikidata.org/entity/Q2"}}, "4": {"name": "University of Picardie Jules Verne", "coordinates": {"latitude": 49.8768, "longitude": 2.2646, "altitude": null, "precision": 0.013939616024425, "globe": "http://www.wikidata.org/entity/Q2"}}}, "occupation": {"0": "philosopher", "1": "research fellow"}, "educatedAt": {"0": {"name": "\u00c9cole Normale Sup\u00e9rieure", "coordinates": {"latitude": 48.841944444444, "longitude": 2.3444444444444, "altitude": null, "precision": 0.00027777777777778, "globe": "http://www.wikidata.org/entity/Q2"}}, "1": {"name": "University of Paris 1 Pantheon-Sorbonne", "coordinates": {"latitude": 48.848333, "longitude": 2.343056, "altitude": null, "precision": 1e-06, "globe": "http://www.wikidata.org/entity/Q2"}}, "2": {"name": "University of Picardie Jules Verne", "coordinates": {"latitude": 49.8768, "longitude": 2.2646, "altitude": null, "precision": 0.013939616024425, "globe": "http://www.wikidata.org/entity/Q2"}}, "3": {"name": "University of Paris 1 Pantheon-Sorbonne", "coordinates": {"latitude": 48.848333, "longitude": 2.343056, "altitude": null, "precision": 1e-06, "globe": "http://www.wikidata.org/entity/Q2"}}}, "countryOfCitizenship": {"0": "France"}, "dateOfBirth": {"0": "+1982-00-00T00:00:00Z"}, "edges": {"studentOf": {"0": {"id": "Q3471924", "name": "Sandra Laugier"}}}}